[
{"type":"Feature","id":"K3009","geometry":{"type":"Point","coordinates":[-85.5976, 44.7361]},"properties":{"store":"TRAVERSE CITY MI"}},
{"type":"Feature","id":"K3013","geometry":{"type":"Point","coordinates":[-81.6822, 41.3566]},"properties":{"store":"CLEVELAND OH"}},
{"type":"Feature","id":"K3016","geometry":{"type":"Point","coordinates":[-93.7011, 32.5308]},"properties":{"store":"BOSSIER CITY LA"}},
{"type":"Feature","id":"K3018","geometry":{"type":"Point","coordinates":[-118.5436, 34.4218]},"properties":{"store":"VALENCIA CA"}},
{"type":"Feature","id":"K3021","geometry":{"type":"Point","coordinates":[-70.2229, 44.1239]},"properties":{"store":"AUBURN ME"}},
{"type":"Feature","id":"K3022","geometry":{"type":"Point","coordinates":[-82.2164, 36.592]},"properties":{"store":"BRISTOL TN"}},
{"type":"Feature","id":"K3027","geometry":{"type":"Point","coordinates":[-75.0401, 39.8018]},"properties":{"store":"CLEMENTON NJ"}},
{"type":"Feature","id":"K3028","geometry":{"type":"Point","coordinates":[-75.0091, 40.1525]},"properties":{"store":"FEASTERVILLE PA"}},
{"type":"Feature","id":"K3029","geometry":{"type":"Point","coordinates":[-84.5878, 39.0197]},"properties":{"store":"ERLANGER KY"}},
{"type":"Feature","id":"K3031","geometry":{"type":"Point","coordinates":[-93.2638, 45.1334]},"properties":{"store":"BLAINE MN"}},
{"type":"Feature","id":"K3033","geometry":{"type":"Point","coordinates":[-84.0201, 39.787]},"properties":{"store":"FAIRBORN OH"}},
{"type":"Feature","id":"K3040","geometry":{"type":"Point","coordinates":[-70.2939, 41.67]},"properties":{"store":"HYANNIS MA"}},
{"type":"Feature","id":"K3043","geometry":{"type":"Point","coordinates":[-104.8114, 39.7382]},"properties":{"store":"AURORA CO"}},
{"type":"Feature","id":"K3044","geometry":{"type":"Point","coordinates":[-98.4416, 34.6223]},"properties":{"store":"LAWTON OK"}},
{"type":"Feature","id":"K3047","geometry":{"type":"Point","coordinates":[-75.645, 41.469]},"properties":{"store":"SCRANTON PA"}},
{"type":"Feature","id":"K3050","geometry":{"type":"Point","coordinates":[-74.1184, 40.0734]},"properties":{"store":"BRICK NJ"}},
{"type":"Feature","id":"K3056","geometry":{"type":"Point","coordinates":[-74.2373, 40.9624]},"properties":{"store":"WAYNE NJ"}},
{"type":"Feature","id":"K3057","geometry":{"type":"Point","coordinates":[-85.707, 38.2011]},"properties":{"store":"LOUISVILLE KY"}},
{"type":"Feature","id":"K3059","geometry":{"type":"Point","coordinates":[-93.0919, 44.9795]},"properties":{"store":"ST PAUL MN"}},
{"type":"Feature","id":"K3060","geometry":{"type":"Point","coordinates":[-75.1769, 39.791]},"properties":{"store":"MANTUA NJ"}},
{"type":"Feature","id":"K3061","geometry":{"type":"Point","coordinates":[-82.5025, 27.966]},"properties":{"store":"TAMPA FL"}},
{"type":"Feature","id":"K3067","geometry":{"type":"Point","coordinates":[-96.0889, 36.139]},"properties":{"store":"SAND SPRINGS OK"}},
{"type":"Feature","id":"K3071","geometry":{"type":"Point","coordinates":[-74.1838, 39.9609]},"properties":{"store":"TOMS RIVER NJ"}},
{"type":"Feature","id":"K3074","geometry":{"type":"Point","coordinates":[-80.4219, 25.6872]},"properties":{"store":"MIAMI FL"}},
{"type":"Feature","id":"K3076","geometry":{"type":"Point","coordinates":[-117.0108, 32.7137]},"properties":{"store":"SPRING VALLEY CA"}},
{"type":"Feature","id":"K3082","geometry":{"type":"Point","coordinates":[-85.3908, 31.2546]},"properties":{"store":"DOTHAN AL"}},
{"type":"Feature","id":"K3083","geometry":{"type":"Point","coordinates":[-85.2566, 34.9538]},"properties":{"store":"FORT OGLETHORPE GA"}},
{"type":"Feature","id":"K3084","geometry":{"type":"Point","coordinates":[-86.6684, 36.1475]},"properties":{"store":"NASHVILLE TN"}},
{"type":"Feature","id":"K3085","geometry":{"type":"Point","coordinates":[-111.8985, 40.8631]},"properties":{"store":"WOODS CROSS UT"}},
{"type":"Feature","id":"K3086","geometry":{"type":"Point","coordinates":[-121.8461, 39.7565]},"properties":{"store":"CHICO CA"}},
{"type":"Feature","id":"K3088","geometry":{"type":"Point","coordinates":[-87.8585, 42.5899]},"properties":{"store":"KENOSHA WI"}},
{"type":"Feature","id":"K3093","geometry":{"type":"Point","coordinates":[-72.6785, 41.6042]},"properties":{"store":"CROMWELL CT"}},
{"type":"Feature","id":"K3094","geometry":{"type":"Point","coordinates":[-111.3131, 47.5186]},"properties":{"store":"GREAT FALLS MT"}},
{"type":"Feature","id":"K3095","geometry":{"type":"Point","coordinates":[-115.1107, 36.2095]},"properties":{"store":"NORTH LAS VEGAS NV"}},
{"type":"Feature","id":"K3097","geometry":{"type":"Point","coordinates":[-95.8082, 41.2778]},"properties":{"store":"COUNCIL BLUFFS IA"}},
{"type":"Feature","id":"K3103","geometry":{"type":"Point","coordinates":[-88.6551, 37.0436]},"properties":{"store":"PADUCAH KY"}},
{"type":"Feature","id":"K3106","geometry":{"type":"Point","coordinates":[-117.4517, 33.9447]},"properties":{"store":"RIVERSIDE CA"}},
{"type":"Feature","id":"K3111","geometry":{"type":"Point","coordinates":[-84.3091, 39.8752]},"properties":{"store":"ENGLEWOOD OH"}},
{"type":"Feature","id":"K3115","geometry":{"type":"Point","coordinates":[-76.0664, 43.0452]},"properties":{"store":"DE WITT NY"}},
{"type":"Feature","id":"K3116","geometry":{"type":"Point","coordinates":[-77.882, 34.2195]},"properties":{"store":"WILMINGTON NC"}},
{"type":"Feature","id":"K3117","geometry":{"type":"Point","coordinates":[-75.1232, 40.1436]},"properties":{"store":"WILLOW GROVE PA"}},
{"type":"Feature","id":"K3120","geometry":{"type":"Point","coordinates":[-92.3948, 34.769]},"properties":{"store":"LITTLE ROCK AR"}},
{"type":"Feature","id":"K3126","geometry":{"type":"Point","coordinates":[-83.0369, 42.6708]},"properties":{"store":"SHELBY TOWNSHIP MI"}},
{"type":"Feature","id":"K3127","geometry":{"type":"Point","coordinates":[-118.0751, 34.1024]},"properties":{"store":"TEMPLE CITY CA"}},
{"type":"Feature","id":"K3128","geometry":{"type":"Point","coordinates":[-97.9272, 36.3926]},"properties":{"store":"ENID OK"}},
{"type":"Feature","id":"K3130","geometry":{"type":"Point","coordinates":[-122.3572, 40.5684]},"properties":{"store":"REDDING CA"}},
{"type":"Feature","id":"K3131","geometry":{"type":"Point","coordinates":[-77.4421, 39.4186]},"properties":{"store":"FREDERICK MD"}},
{"type":"Feature","id":"K3133","geometry":{"type":"Point","coordinates":[-122.4633, 48.7745]},"properties":{"store":"BELLINGHAM WA"}},
{"type":"Feature","id":"K3136","geometry":{"type":"Point","coordinates":[-75.9838, 40.3073]},"properties":{"store":"SHILLINGTON PA"}},
{"type":"Feature","id":"K3137","geometry":{"type":"Point","coordinates":[-90.1268, 38.7273]},"properties":{"store":"GRANITE CITY IL"}},
{"type":"Feature","id":"K3138","geometry":{"type":"Point","coordinates":[-71.4876, 42.1503]},"properties":{"store":"MILFORD MA"}},
{"type":"Feature","id":"K3140","geometry":{"type":"Point","coordinates":[-82.7404, 28.0183]},"properties":{"store":"CLEARWATER FL"}},
{"type":"Feature","id":"K3141","geometry":{"type":"Point","coordinates":[-80.1126, 40.3658]},"properties":{"store":"BRIDGEVILLE PA"}},
{"type":"Feature","id":"K3142","geometry":{"type":"Point","coordinates":[-81.4396, 41.0857]},"properties":{"store":"TALLMADGE OH"}},
{"type":"Feature","id":"K3143","geometry":{"type":"Point","coordinates":[-88.8549, 35.6551]},"properties":{"store":"JACKSON TN"}},
{"type":"Feature","id":"K3144","geometry":{"type":"Point","coordinates":[-81.8015, 26.2005]},"properties":{"store":"NAPLES FL"}},
{"type":"Feature","id":"K3146","geometry":{"type":"Point","coordinates":[-76.5206, 39.2957]},"properties":{"store":"BALTIMORE MD"}},
{"type":"Feature","id":"K3147","geometry":{"type":"Point","coordinates":[-82.5142, 36.544]},"properties":{"store":"KINGSPORT TN"}},
{"type":"Feature","id":"K3151","geometry":{"type":"Point","coordinates":[-115.572, 32.8103]},"properties":{"store":"EL CENTRO CA"}},
{"type":"Feature","id":"K3154","geometry":{"type":"Point","coordinates":[-76.3612, 37.0451]},"properties":{"store":"HAMPTON VA"}},
{"type":"Feature","id":"K3155","geometry":{"type":"Point","coordinates":[-83.542, 42.2161]},"properties":{"store":"BELLEVILLE MI"}},
{"type":"Feature","id":"K3158","geometry":{"type":"Point","coordinates":[-75.522, 39.176]},"properties":{"store":"DOVER DE"}},
{"type":"Feature","id":"K3160","geometry":{"type":"Point","coordinates":[-76.6935, 39.0165]},"properties":{"store":"CROFTON MD"}},
{"type":"Feature","id":"K3162","geometry":{"type":"Point","coordinates":[-121.6323, 39.1387]},"properties":{"store":"YUBA CITY CA"}},
{"type":"Feature","id":"K3164","geometry":{"type":"Point","coordinates":[-80.0797, 26.8068]},"properties":{"store":"LAKE PARK FL"}},
{"type":"Feature","id":"K3167","geometry":{"type":"Point","coordinates":[-76.7009, 39.3475]},"properties":{"store":"BALTIMORE MD"}},
{"type":"Feature","id":"K3169","geometry":{"type":"Point","coordinates":[-117.8115, 34.0201]},"properties":{"store":"DIAMOND BAR CA"}},
{"type":"Feature","id":"K3170","geometry":{"type":"Point","coordinates":[-82.024, 39.9861]},"properties":{"store":"ZANESVILLE OH"}},
{"type":"Feature","id":"K3172","geometry":{"type":"Point","coordinates":[-77.7632, 39.6279]},"properties":{"store":"HAGERSTOWN MD"}},
{"type":"Feature","id":"K3174","geometry":{"type":"Point","coordinates":[-121.2393, 37.9382]},"properties":{"store":"STOCKTON CA"}},
{"type":"Feature","id":"K3175","geometry":{"type":"Point","coordinates":[-71.4345, 43.0493]},"properties":{"store":"HOOKSETT NH"}},
{"type":"Feature","id":"K3180","geometry":{"type":"Point","coordinates":[-87.3392, 41.4684]},"properties":{"store":"MERRILLVILLE IN"}},
{"type":"Feature","id":"K3184","geometry":{"type":"Point","coordinates":[-97.9054, 38.0883]},"properties":{"store":"HUTCHINSON KS"}},
{"type":"Feature","id":"K3188","geometry":{"type":"Point","coordinates":[-111.7698, 33.4174]},"properties":{"store":"MESA AZ"}},
{"type":"Feature","id":"K3189","geometry":{"type":"Point","coordinates":[-116.6063, 43.606]},"properties":{"store":"NAMPA ID"}},
{"type":"Feature","id":"K3194","geometry":{"type":"Point","coordinates":[-87.5458, 33.1632]},"properties":{"store":"TUSCALOOSA AL"}},
{"type":"Feature","id":"K3196","geometry":{"type":"Point","coordinates":[-75.5979, 40.2429]},"properties":{"store":"POTTSTOWN PA"}},
{"type":"Feature","id":"K3198","geometry":{"type":"Point","coordinates":[-81.823, 38.3864]},"properties":{"store":"ST ALBANS WV"}},
{"type":"Feature","id":"K3201","geometry":{"type":"Point","coordinates":[-74.1106, 40.5654]},"properties":{"store":"STATEN ISLAND NY"}},
{"type":"Feature","id":"K3202","geometry":{"type":"Point","coordinates":[-74.0385, 40.9966]},"properties":{"store":"WESTWOOD NJ"}},
{"type":"Feature","id":"K3206","geometry":{"type":"Point","coordinates":[-77.3705, 37.5422]},"properties":{"store":"RICHMOND VA"}},
{"type":"Feature","id":"K3207","geometry":{"type":"Point","coordinates":[-83.3583, 42.5239]},"properties":{"store":"FARMINGTON HILLS MI"}},
{"type":"Feature","id":"K3209","geometry":{"type":"Point","coordinates":[-123.0663, 44.6397]},"properties":{"store":"ALBANY OR"}},
{"type":"Feature","id":"K3216","geometry":{"type":"Point","coordinates":[-72.4923, 41.8289]},"properties":{"store":"VERNON CT"}},
{"type":"Feature","id":"K3218","geometry":{"type":"Point","coordinates":[-81.5576, 39.2486]},"properties":{"store":"PARKERSBURG WV"}},
{"type":"Feature","id":"K3219","geometry":{"type":"Point","coordinates":[-84.2121, 31.6122]},"properties":{"store":"ALBANY GA"}},
{"type":"Feature","id":"K3220","geometry":{"type":"Point","coordinates":[-81.5492, 39.306]},"properties":{"store":"VIENNA WV"}},
{"type":"Feature","id":"K3222","geometry":{"type":"Point","coordinates":[-75.0434, 39.4312]},"properties":{"store":"VINELAND NJ"}},
{"type":"Feature","id":"K3223","geometry":{"type":"Point","coordinates":[-86.6116, 30.4218]},"properties":{"store":"FORT WALTON BEACH FL"}},
{"type":"Feature","id":"K3225","geometry":{"type":"Point","coordinates":[-77.6502, 39.9148]},"properties":{"store":"CHAMBERSBURG PA"}},
{"type":"Feature","id":"K3228","geometry":{"type":"Point","coordinates":[-112.1145, 33.5543]},"properties":{"store":"PHOENIX AZ"}},
{"type":"Feature","id":"K3229","geometry":{"type":"Point","coordinates":[-76.5463, 39.3246]},"properties":{"store":"BALTIMORE MD"}},
{"type":"Feature","id":"K3230","geometry":{"type":"Point","coordinates":[-87.1164, 37.7495]},"properties":{"store":"OWENSBORO KY"}},
{"type":"Feature","id":"K3232","geometry":{"type":"Point","coordinates":[-75.6283, 40.0315]},"properties":{"store":"EXTON PA"}},
{"type":"Feature","id":"K3233","geometry":{"type":"Point","coordinates":[-89.0758, 42.2213]},"properties":{"store":"ROCKFORD IL"}},
{"type":"Feature","id":"K3235","geometry":{"type":"Point","coordinates":[-117.9424, 34.0697]},"properties":{"store":"WEST COVINA CA"}},
{"type":"Feature","id":"K3237","geometry":{"type":"Point","coordinates":[-75.5464, 38.3638]},"properties":{"store":"SALISBURY MD"}},
{"type":"Feature","id":"K3238","geometry":{"type":"Point","coordinates":[-95.9428, 36.0883]},"properties":{"store":"TULSA OK"}},
{"type":"Feature","id":"K3239","geometry":{"type":"Point","coordinates":[-94.6524, 39.2233]},"properties":{"store":"KANSAS CITY MO"}},
{"type":"Feature","id":"K3241","geometry":{"type":"Point","coordinates":[-89.7047, 39.763]},"properties":{"store":"SPRINGFIELD IL"}},
{"type":"Feature","id":"K3243","geometry":{"type":"Point","coordinates":[-81.4083, 40.8924]},"properties":{"store":"NORTH CANTON OH"}},
{"type":"Feature","id":"K3251","geometry":{"type":"Point","coordinates":[-86.2788, 39.7458]},"properties":{"store":"INDIANAPOLIS IN"}},
{"type":"Feature","id":"K3254","geometry":{"type":"Point","coordinates":[-85.0853, 41.0843]},"properties":{"store":"FORT WAYNE IN"}},
{"type":"Feature","id":"K3256","geometry":{"type":"Point","coordinates":[-76.5413, 39.4029]},"properties":{"store":"BALTIMORE MD"}},
{"type":"Feature","id":"K3260","geometry":{"type":"Point","coordinates":[-86.1089, 39.6039]},"properties":{"store":"GREENWOOD IN"}},
{"type":"Feature","id":"K3264","geometry":{"type":"Point","coordinates":[-75.7033, 41.3756]},"properties":{"store":"MOOSIC PA"}},
{"type":"Feature","id":"K3266","geometry":{"type":"Point","coordinates":[-75.9083, 41.2567]},"properties":{"store":"KINGSTON PA"}},
{"type":"Feature","id":"K3268","geometry":{"type":"Point","coordinates":[-75.8803, 41.2253]},"properties":{"store":"WILKES BARRE PA"}},
{"type":"Feature","id":"K3269","geometry":{"type":"Point","coordinates":[-80.0556, 26.5745]},"properties":{"store":"LANTANA FL"}},
{"type":"Feature","id":"K3276","geometry":{"type":"Point","coordinates":[-122.1415, 37.7003]},"properties":{"store":"SAN LEANDRO CA"}},
{"type":"Feature","id":"K3277","geometry":{"type":"Point","coordinates":[-76.5924, 39.127]},"properties":{"store":"PASADENA MD"}},
{"type":"Feature","id":"K3278","geometry":{"type":"Point","coordinates":[-81.6011, 41.3999]},"properties":{"store":"GARFIELD HGTS OH"}},
{"type":"Feature","id":"K3279","geometry":{"type":"Point","coordinates":[-83.5979, 43.024]},"properties":{"store":"BURTON MI"}},
{"type":"Feature","id":"K3282","geometry":{"type":"Point","coordinates":[-77.7471, 43.1086]},"properties":{"store":"ROCHESTER NY"}},
{"type":"Feature","id":"K3286","geometry":{"type":"Point","coordinates":[-81.8046, 41.2403]},"properties":{"store":"BRUNSWICK OH"}},
{"type":"Feature","id":"K3287","geometry":{"type":"Point","coordinates":[-90.5464, 41.4658]},"properties":{"store":"ROCK ISLAND IL"}},
{"type":"Feature","id":"K3288","geometry":{"type":"Point","coordinates":[-71.2647, 42.5562]},"properties":{"store":"BILLERICA MA"}},
{"type":"Feature","id":"K3289","geometry":{"type":"Point","coordinates":[-83.6538, 32.6167]},"properties":{"store":"WARNER ROBINS GA"}},
{"type":"Feature","id":"K3295","geometry":{"type":"Point","coordinates":[-77.7094, 43.2093]},"properties":{"store":"ROCHESTER NY"}},
{"type":"Feature","id":"K3298","geometry":{"type":"Point","coordinates":[-116.3127, 43.6181]},"properties":{"store":"BOISE ID"}},
{"type":"Feature","id":"K3301","geometry":{"type":"Point","coordinates":[-105.9698, 35.6577]},"properties":{"store":"SANTA FE NM"}},
{"type":"Feature","id":"K3302","geometry":{"type":"Point","coordinates":[-83.588, 41.7201]},"properties":{"store":"TOLEDO OH"}},
{"type":"Feature","id":"K3308","geometry":{"type":"Point","coordinates":[-83.2388, 42.7656]},"properties":{"store":"LAKE ORION MI"}},
{"type":"Feature","id":"K3317","geometry":{"type":"Point","coordinates":[-80.1142, 26.3527]},"properties":{"store":"BOCA RATON FL"}},
{"type":"Feature","id":"K3318","geometry":{"type":"Point","coordinates":[-80.5523, 40.3999]},"properties":{"store":"WEIRTON WV"}},
{"type":"Feature","id":"K3320","geometry":{"type":"Point","coordinates":[-90.7426, 29.609]},"properties":{"store":"HOUMA LA"}},
{"type":"Feature","id":"K3324","geometry":{"type":"Point","coordinates":[-79.9707, 37.2377]},"properties":{"store":"ROANOKE VA"}},
{"type":"Feature","id":"K3325","geometry":{"type":"Point","coordinates":[-80.8673, 40.0641]},"properties":{"store":"ST CLAIRSVILLE OH"}},
{"type":"Feature","id":"K3327","geometry":{"type":"Point","coordinates":[-83.0887, 42.5948]},"properties":{"store":"STERLING HEIGHTS MI"}},
{"type":"Feature","id":"K3328","geometry":{"type":"Point","coordinates":[-87.996, 41.5185]},"properties":{"store":"NEW LENOX IL"}},
{"type":"Feature","id":"K3329","geometry":{"type":"Point","coordinates":[-82.697, 28.3374]},"properties":{"store":"HUDSON FL"}},
{"type":"Feature","id":"K3333","geometry":{"type":"Point","coordinates":[-71.0277, 42.4649]},"properties":{"store":"SAUGUS MA"}},
{"type":"Feature","id":"K3337","geometry":{"type":"Point","coordinates":[-118.1873, 33.9614]},"properties":{"store":"CUDAHY CA"}},
{"type":"Feature","id":"K3339","geometry":{"type":"Point","coordinates":[-74.3888, 40.431]},"properties":{"store":"EAST BRUNSWICK NJ"}},
{"type":"Feature","id":"K3340","geometry":{"type":"Point","coordinates":[-77.3771, 38.9695]},"properties":{"store":"HERNDON VA"}},
{"type":"Feature","id":"K3343","geometry":{"type":"Point","coordinates":[-87.5562, 41.5802]},"properties":{"store":"LANSING IL"}},
{"type":"Feature","id":"K3345","geometry":{"type":"Point","coordinates":[-120.9728, 37.6106]},"properties":{"store":"MODESTO CA"}},
{"type":"Feature","id":"K3347","geometry":{"type":"Point","coordinates":[-90.0224, 29.8844]},"properties":{"store":"GRETNA LA"}},
{"type":"Feature","id":"K3350","geometry":{"type":"Point","coordinates":[-74.9676, 39.9468]},"properties":{"store":"MOORESTOWN NJ"}},
{"type":"Feature","id":"K3351","geometry":{"type":"Point","coordinates":[-86.2062, 43.232]},"properties":{"store":"MUSKEGON MI"}},
{"type":"Feature","id":"K3352","geometry":{"type":"Point","coordinates":[-76.2311, 43.1567]},"properties":{"store":"LIVERPOOL NY"}},
{"type":"Feature","id":"K3353","geometry":{"type":"Point","coordinates":[-81.7495, 30.1655]},"properties":{"store":"ORANGE PARK FL"}},
{"type":"Feature","id":"K3355","geometry":{"type":"Point","coordinates":[-85.6825, 30.1733]},"properties":{"store":"PANAMA CITY FL"}},
{"type":"Feature","id":"K3358","geometry":{"type":"Point","coordinates":[-97.3314, 37.6067]},"properties":{"store":"WICHITA KS"}},
{"type":"Feature","id":"K3359","geometry":{"type":"Point","coordinates":[-86.8078, 33.6512]},"properties":{"store":"GARDENDALE AL"}},
{"type":"Feature","id":"K3361","geometry":{"type":"Point","coordinates":[-75.4622, 40.5855]},"properties":{"store":"ALLENTOWN PA"}},
{"type":"Feature","id":"K3363","geometry":{"type":"Point","coordinates":[-117.9437, 33.8014]},"properties":{"store":"ANAHEIM CA"}},
{"type":"Feature","id":"K3368","geometry":{"type":"Point","coordinates":[-117.2101, 34.0614]},"properties":{"store":"REDLANDS CA"}},
{"type":"Feature","id":"K3371","geometry":{"type":"Point","coordinates":[-87.7148, 41.946]},"properties":{"store":"CHICAGO IL"}},
{"type":"Feature","id":"K3372","geometry":{"type":"Point","coordinates":[-73.9203, 41.6189]},"properties":{"store":"POUGHKEEPSIE NY"}},
{"type":"Feature","id":"K3375","geometry":{"type":"Point","coordinates":[-114.5946, 35.1051]},"properties":{"store":"BULLHEAD CITY AZ"}},
{"type":"Feature","id":"K3376","geometry":{"type":"Point","coordinates":[-121.2927, 38.7211]},"properties":{"store":"CITRUS HEIGHTS CA"}},
{"type":"Feature","id":"K3379","geometry":{"type":"Point","coordinates":[-83.3891, 42.695]},"properties":{"store":"WATERFORD MI"}},
{"type":"Feature","id":"K3380","geometry":{"type":"Point","coordinates":[-69.6413, 44.5684]},"properties":{"store":"WATERVILLE ME"}},
{"type":"Feature","id":"K3381","geometry":{"type":"Point","coordinates":[-80.328, 27.4264]},"properties":{"store":"FORT PIERCE FL"}},
{"type":"Feature","id":"K3390","geometry":{"type":"Point","coordinates":[-76.9639, 41.251]},"properties":{"store":"WILLIAMSPORT PA"}},
{"type":"Feature","id":"K3392","geometry":{"type":"Point","coordinates":[-75.3948, 39.8791]},"properties":{"store":"BROOKHAVEN PA"}},
{"type":"Feature","id":"K3393","geometry":{"type":"Point","coordinates":[-75.1175, 39.7228]},"properties":{"store":"GLASSBORO NJ"}},
{"type":"Feature","id":"K3396","geometry":{"type":"Point","coordinates":[-73.8865, 41.7008]},"properties":{"store":"POUGHKEEPSIE NY"}},
{"type":"Feature","id":"K3401","geometry":{"type":"Point","coordinates":[-71.1561, 41.6718]},"properties":{"store":"FALL RIVER MA"}},
{"type":"Feature","id":"K3405","geometry":{"type":"Point","coordinates":[-93.2779, 44.9497]},"properties":{"store":"MINNEAPOLIS MN"}},
{"type":"Feature","id":"K3406","geometry":{"type":"Point","coordinates":[-75.1822, 40.9925]},"properties":{"store":"EAST STROUDSBURG PA"}},
{"type":"Feature","id":"K3407","geometry":{"type":"Point","coordinates":[-84.1035, 39.6982]},"properties":{"store":"DAYTON OH"}},
{"type":"Feature","id":"K3410","geometry":{"type":"Point","coordinates":[-82.8268, 39.9533]},"properties":{"store":"REYNOLDSBURG OH"}},
{"type":"Feature","id":"K3412","geometry":{"type":"Point","coordinates":[-121.6666, 36.6966]},"properties":{"store":"SALINAS CA"}},
{"type":"Feature","id":"K3413","geometry":{"type":"Point","coordinates":[-122.2497, 47.3796]},"properties":{"store":"KENT WA"}},
{"type":"Feature","id":"K3414","geometry":{"type":"Point","coordinates":[-74.0864, 40.8747]},"properties":{"store":"LODI NJ"}},
{"type":"Feature","id":"K3415","geometry":{"type":"Point","coordinates":[-78.8707, 42.9462]},"properties":{"store":"BUFFALO NY"}},
{"type":"Feature","id":"K3416","geometry":{"type":"Point","coordinates":[-76.2359, 40.0286]},"properties":{"store":"LANCASTER PA"}},
{"type":"Feature","id":"K3418","geometry":{"type":"Point","coordinates":[-75.4087, 40.0457]},"properties":{"store":"WAYNE PA"}},
{"type":"Feature","id":"K3420","geometry":{"type":"Point","coordinates":[-82.9423, 38.747]},"properties":{"store":"NEW BOSTON OH"}},
{"type":"Feature","id":"K3422","geometry":{"type":"Point","coordinates":[-90.1425, 38.9134]},"properties":{"store":"ALTON IL"}},
{"type":"Feature","id":"K3423","geometry":{"type":"Point","coordinates":[-90.1883, 29.963]},"properties":{"store":"NEW ORLEANS LA"}},
{"type":"Feature","id":"K3424","geometry":{"type":"Point","coordinates":[-82.4253, 29.6613]},"properties":{"store":"GAINESVILLE FL"}},
{"type":"Feature","id":"K3425","geometry":{"type":"Point","coordinates":[-82.3239, 38.4095]},"properties":{"store":"HUNTINGTON WV"}},
{"type":"Feature","id":"K3433","geometry":{"type":"Point","coordinates":[-72.6329, 42.1869]},"properties":{"store":"HOLYOKE MA"}},
{"type":"Feature","id":"K3435","geometry":{"type":"Point","coordinates":[-117.8859, 33.8377]},"properties":{"store":"ANAHEIM CA"}},
{"type":"Feature","id":"K3438","geometry":{"type":"Point","coordinates":[-74.2886, 40.5915]},"properties":{"store":"AVENEL NJ"}},
{"type":"Feature","id":"K3447","geometry":{"type":"Point","coordinates":[-93.7593, 41.6019]},"properties":{"store":"CLIVE IA"}},
{"type":"Feature","id":"K3457","geometry":{"type":"Point","coordinates":[-82.4987, 27.3417]},"properties":{"store":"SARASOTA FL"}},
{"type":"Feature","id":"K3459","geometry":{"type":"Point","coordinates":[-74.1021, 40.7089]},"properties":{"store":"JERSEY CITY NJ"}},
{"type":"Feature","id":"K3471","geometry":{"type":"Point","coordinates":[-76.2571, 36.7862]},"properties":{"store":"CHESAPEAKE VA"}},
{"type":"Feature","id":"K3474","geometry":{"type":"Point","coordinates":[-88.3137, 42.2281]},"properties":{"store":"CRYSTAL LAKE IL"}},
{"type":"Feature","id":"K3475","geometry":{"type":"Point","coordinates":[-97.7486, 31.1122]},"properties":{"store":"KILLEEN TX"}},
{"type":"Feature","id":"K3478","geometry":{"type":"Point","coordinates":[-81.4764, 28.4544]},"properties":{"store":"ORLANDO FL"}},
{"type":"Feature","id":"K3483","geometry":{"type":"Point","coordinates":[-117.6531, 34.0276]},"properties":{"store":"ONTARIO CA"}},
{"type":"Feature","id":"K3484","geometry":{"type":"Point","coordinates":[-81.5006, 38.4583]},"properties":{"store":"ELKVIEW WV"}},
{"type":"Feature","id":"K3486","geometry":{"type":"Point","coordinates":[-71.0825, 42.3936]},"properties":{"store":"SOMERVILLE MA"}},
{"type":"Feature","id":"K3491","geometry":{"type":"Point","coordinates":[-106.4042, 31.7897]},"properties":{"store":"EL PASO TX"}},
{"type":"Feature","id":"K3495","geometry":{"type":"Point","coordinates":[-73.0861, 41.2055]},"properties":{"store":"MILFORD CT"}},
{"type":"Feature","id":"K3498","geometry":{"type":"Point","coordinates":[-76.2229, 40.7685]},"properties":{"store":"FRACKVILLE PA"}},
{"type":"Feature","id":"K3499","geometry":{"type":"Point","coordinates":[-74.1583, 40.7603]},"properties":{"store":"KEARNY NJ"}},
{"type":"Feature","id":"K3501","geometry":{"type":"Point","coordinates":[-122.6313, 38.2497]},"properties":{"store":"PETALUMA CA"}},
{"type":"Feature","id":"K3512","geometry":{"type":"Point","coordinates":[-77.2998, 38.6257]},"properties":{"store":"WOODBRIDGE VA"}},
{"type":"Feature","id":"K3517","geometry":{"type":"Point","coordinates":[-76.5072, 39.372]},"properties":{"store":"BALTIMORE MD"}},
{"type":"Feature","id":"K3521","geometry":{"type":"Point","coordinates":[-75.9061, 42.1117]},"properties":{"store":"BINGHAMTON NY"}},
{"type":"Feature","id":"K3522","geometry":{"type":"Point","coordinates":[-74.122, 40.9194]},"properties":{"store":"ELMWOOD PARK NJ"}},
{"type":"Feature","id":"K3523","geometry":{"type":"Point","coordinates":[-74.0839, 40.9775]},"properties":{"store":"PARAMUS NJ"}},
{"type":"Feature","id":"K3524","geometry":{"type":"Point","coordinates":[-73.9572, 40.9713]},"properties":{"store":"CLOSTER NJ"}},
{"type":"Feature","id":"K3527","geometry":{"type":"Point","coordinates":[-75.0559, 40.0415]},"properties":{"store":"PHILADELPHIA PA"}},
{"type":"Feature","id":"K3529","geometry":{"type":"Point","coordinates":[-80.0363, 40.5163]},"properties":{"store":"PITTSBURGH PA"}},
{"type":"Feature","id":"K3531","geometry":{"type":"Point","coordinates":[-122.3049, 37.9905]},"properties":{"store":"PINOLE CA"}},
{"type":"Feature","id":"K3534","geometry":{"type":"Point","coordinates":[-88.358, 43.3155]},"properties":{"store":"HARTFORD WI"}},
{"type":"Feature","id":"K3535","geometry":{"type":"Point","coordinates":[-80.8569, 41.25]},"properties":{"store":"WARREN OH"}},
{"type":"Feature","id":"K3544","geometry":{"type":"Point","coordinates":[-80.0794, 37.2914]},"properties":{"store":"SALEM VA"}},
{"type":"Feature","id":"K3546","geometry":{"type":"Point","coordinates":[-82.9549, 42.6027]},"properties":{"store":"CLINTON TOWNSHIP MI"}},
{"type":"Feature","id":"K3551","geometry":{"type":"Point","coordinates":[-106.6552, 35.2338]},"properties":{"store":"RIO RANCHO NM"}},
{"type":"Feature","id":"K3555","geometry":{"type":"Point","coordinates":[-81.5753, 39.9971]},"properties":{"store":"CAMBRIDGE OH"}},
{"type":"Feature","id":"K3556","geometry":{"type":"Point","coordinates":[-85.9761, 41.732]},"properties":{"store":"ELKHART IN"}},
{"type":"Feature","id":"K3557","geometry":{"type":"Point","coordinates":[-84.4072, 40.5555]},"properties":{"store":"ST MARYS OH"}},
{"type":"Feature","id":"K3560","geometry":{"type":"Point","coordinates":[-76.1768, 36.8016]},"properties":{"store":"VIRGINIA BEACH VA"}},
{"type":"Feature","id":"K3561","geometry":{"type":"Point","coordinates":[-74.9419, 40.0953]},"properties":{"store":"BENSALEM PA"}},
{"type":"Feature","id":"K3568","geometry":{"type":"Point","coordinates":[-120.8044, 38.3605]},"properties":{"store":"JACKSON CA"}},
{"type":"Feature","id":"K3569","geometry":{"type":"Point","coordinates":[-72.3167, 43.3624]},"properties":{"store":"CLAREMONT NH"}},
{"type":"Feature","id":"K3570","geometry":{"type":"Point","coordinates":[-82.7366, 42.7995]},"properties":{"store":"RICHMOND MI"}},
{"type":"Feature","id":"K3571","geometry":{"type":"Point","coordinates":[-86.3272, 41.3641]},"properties":{"store":"PLYMOUTH IN"}},
{"type":"Feature","id":"K3573","geometry":{"type":"Point","coordinates":[-81.9411, 26.5187]},"properties":{"store":"FT MYERS FL"}},
{"type":"Feature","id":"K3575","geometry":{"type":"Point","coordinates":[-83.1075, 42.5063]},"properties":{"store":"MADISON HEIGHTS MI"}},
{"type":"Feature","id":"K3582","geometry":{"type":"Point","coordinates":[-119.6966, 36.8105]},"properties":{"store":"CLOVIS CA"}},
{"type":"Feature","id":"K3585","geometry":{"type":"Point","coordinates":[-94.8769, 42.0684]},"properties":{"store":"CARROLL IA"}},
{"type":"Feature","id":"K3586","geometry":{"type":"Point","coordinates":[-76.5086, 38.2952]},"properties":{"store":"CALIFORNIA MD"}},
{"type":"Feature","id":"K3589","geometry":{"type":"Point","coordinates":[-81.8001, 41.452]},"properties":{"store":"CLEVELAND OH"}},
{"type":"Feature","id":"K3592","geometry":{"type":"Point","coordinates":[-115.0634, 36.1726]},"properties":{"store":"LAS VEGAS NV"}},
{"type":"Feature","id":"K3593","geometry":{"type":"Point","coordinates":[-75.3568, 41.1247]},"properties":{"store":"MT POCONO PA"}},
{"type":"Feature","id":"K3594","geometry":{"type":"Point","coordinates":[-87.7046, 41.802]},"properties":{"store":"CHICAGO IL"}},
{"type":"Feature","id":"K3595","geometry":{"type":"Point","coordinates":[-122.3085, 37.5543]},"properties":{"store":"SAN MATEO CA"}},
{"type":"Feature","id":"K3596","geometry":{"type":"Point","coordinates":[-74.5392, 39.3952]},"properties":{"store":"PLEASANTVILLE NJ"}},
{"type":"Feature","id":"K3597","geometry":{"type":"Point","coordinates":[-75.3038, 39.8983]},"properties":{"store":"HOLMES PA"}},
{"type":"Feature","id":"K3598","geometry":{"type":"Point","coordinates":[-79.9601, 37.3169]},"properties":{"store":"ROANOKE VA"}},
{"type":"Feature","id":"K3600","geometry":{"type":"Point","coordinates":[-73.9904, 42.8084]},"properties":{"store":"SCHENECTADY NY"}},
{"type":"Feature","id":"K3602","geometry":{"type":"Point","coordinates":[-84.0088, 33.8567]},"properties":{"store":"SNELLVILLE GA"}},
{"type":"Feature","id":"K3606","geometry":{"type":"Point","coordinates":[-80.1592, 32.9572]},"properties":{"store":"SUMMERVILLE SC"}},
{"type":"Feature","id":"K3613","geometry":{"type":"Point","coordinates":[-80.1824, 25.927]},"properties":{"store":"NORTH MIAMI BEACH FL"}},
{"type":"Feature","id":"K3618","geometry":{"type":"Point","coordinates":[-87.9992, 43.0175]},"properties":{"store":"WEST ALLIS WI"}},
{"type":"Feature","id":"K3620","geometry":{"type":"Point","coordinates":[-90.3896, 40.9732]},"properties":{"store":"GALESBURG IL"}},
{"type":"Feature","id":"K3621","geometry":{"type":"Point","coordinates":[-80.8625, 33.5162]},"properties":{"store":"ORANGEBURG SC"}},
{"type":"Feature","id":"K3624","geometry":{"type":"Point","coordinates":[-81.6859, 27.9885]},"properties":{"store":"WINTER HAVEN FL"}},
{"type":"Feature","id":"K3628","geometry":{"type":"Point","coordinates":[-112.2475, 33.464]},"properties":{"store":"TOLLESON AZ"}},
{"type":"Feature","id":"K3638","geometry":{"type":"Point","coordinates":[-71.2749, 42.6307]},"properties":{"store":"TEWKSBURY MA"}},
{"type":"Feature","id":"K3641","geometry":{"type":"Point","coordinates":[-74.2804, 39.7077]},"properties":{"store":"MANAHAWKIN NJ"}},
{"type":"Feature","id":"K3643","geometry":{"type":"Point","coordinates":[-75.4941, 40.6423]},"properties":{"store":"WHITEHALL PA"}},
{"type":"Feature","id":"K3644","geometry":{"type":"Point","coordinates":[-86.6467, 36.0786]},"properties":{"store":"NASHVILLE TN"}},
{"type":"Feature","id":"K3645","geometry":{"type":"Point","coordinates":[-82.5564, 34.8229]},"properties":{"store":"EASLEY SC"}},
{"type":"Feature","id":"K3646","geometry":{"type":"Point","coordinates":[-86.4259, 36.9441]},"properties":{"store":"BOWLING GREEN KY"}},
{"type":"Feature","id":"K3651","geometry":{"type":"Point","coordinates":[-81.2654, 28.6451]},"properties":{"store":"WINTER SPRINGS FL"}},
{"type":"Feature","id":"K3654","geometry":{"type":"Point","coordinates":[-76.9834, 38.806]},"properties":{"store":"OXON HILL MD"}},
{"type":"Feature","id":"K3661","geometry":{"type":"Point","coordinates":[-83.6908, 32.9002]},"properties":{"store":"MACON GA"}},
{"type":"Feature","id":"K3664","geometry":{"type":"Point","coordinates":[-84.9396, 40.821]},"properties":{"store":"DECATUR IN"}},
{"type":"Feature","id":"K3667","geometry":{"type":"Point","coordinates":[-78.6529, 35.8984]},"properties":{"store":"RALEIGH NC"}},
{"type":"Feature","id":"K3672","geometry":{"type":"Point","coordinates":[-87.5735, 33.2397]},"properties":{"store":"NORTHPORT AL"}},
{"type":"Feature","id":"K3678","geometry":{"type":"Point","coordinates":[-116.883, 33.0353]},"properties":{"store":"RAMONA CA"}},
{"type":"Feature","id":"K3679","geometry":{"type":"Point","coordinates":[-66.3778, 18.4435]},"properties":{"store":"VEGA BAJA PR"}},
{"type":"Feature","id":"K3680","geometry":{"type":"Point","coordinates":[-115.0928, 36.0728]},"properties":{"store":"LAS VEGAS NV"}},
{"type":"Feature","id":"K3682","geometry":{"type":"Point","coordinates":[-106.7645, 32.3502]},"properties":{"store":"LAS CRUCES NM"}},
{"type":"Feature","id":"K3688","geometry":{"type":"Point","coordinates":[-87.5575, 37.8249]},"properties":{"store":"HENDERSON KY"}},
{"type":"Feature","id":"K3689","geometry":{"type":"Point","coordinates":[-81.9799, 36.701]},"properties":{"store":"ABINGDON VA"}},
{"type":"Feature","id":"K3692","geometry":{"type":"Point","coordinates":[-88.4738, 43.0849]},"properties":{"store":"OCONOMOWOC WI"}},
{"type":"Feature","id":"K3695","geometry":{"type":"Point","coordinates":[-110.2774, 31.5574]},"properties":{"store":"SIERRA VISTA AZ"}},
{"type":"Feature","id":"K3696","geometry":{"type":"Point","coordinates":[-121.239, 38.7823]},"properties":{"store":"ROCKLIN CA"}},
{"type":"Feature","id":"K3699","geometry":{"type":"Point","coordinates":[-117.2109, 34.4702]},"properties":{"store":"APPLE VALLEY CA"}},
{"type":"Feature","id":"K3701","geometry":{"type":"Point","coordinates":[-86.4652, 30.5175]},"properties":{"store":"NICEVILLE FL"}},
{"type":"Feature","id":"K3706","geometry":{"type":"Point","coordinates":[-81.0633, 36.9504]},"properties":{"store":"WYTHEVILLE VA"}},
{"type":"Feature","id":"K3707","geometry":{"type":"Point","coordinates":[-114.3367, 34.4768]},"properties":{"store":"LAKE HAVASU CITY AZ"}},
{"type":"Feature","id":"K3710","geometry":{"type":"Point","coordinates":[-80.2716, 40.7008]},"properties":{"store":"ROCHESTER PA"}},
{"type":"Feature","id":"K3713","geometry":{"type":"Point","coordinates":[-83.877, 33.6026]},"properties":{"store":"COVINGTON GA"}},
{"type":"Feature","id":"K3715","geometry":{"type":"Point","coordinates":[-85.4976, 36.1512]},"properties":{"store":"COOKEVILLE TN"}},
{"type":"Feature","id":"K3719","geometry":{"type":"Point","coordinates":[-115.2325, 36.2421]},"properties":{"store":"LAS VEGAS NV"}},
{"type":"Feature","id":"K3720","geometry":{"type":"Point","coordinates":[-85.4973, 44.7794]},"properties":{"store":"WILLIAMSBURG MI"}},
{"type":"Feature","id":"K3722","geometry":{"type":"Point","coordinates":[-122.3329, 48.4566]},"properties":{"store":"BURLINGTON WA"}},
{"type":"Feature","id":"K3724","geometry":{"type":"Point","coordinates":[-81.9338, 38.4515]},"properties":{"store":"SCOTT DEPOT WV"}},
{"type":"Feature","id":"K3725","geometry":{"type":"Point","coordinates":[-121.7698, 36.9341]},"properties":{"store":"FREEDOM CA"}},
{"type":"Feature","id":"K3728","geometry":{"type":"Point","coordinates":[-92.4175, 31.3566]},"properties":{"store":"PINEVILLE LA"}},
{"type":"Feature","id":"K3737","geometry":{"type":"Point","coordinates":[-75.1325, 40.3341]},"properties":{"store":"DOYLESTOWN PA"}},
{"type":"Feature","id":"K3744","geometry":{"type":"Point","coordinates":[-75.6728, 36.0377]},"properties":{"store":"KILL DEVIL HILLS NC"}},
{"type":"Feature","id":"K3748","geometry":{"type":"Point","coordinates":[-121.3939, 36.838]},"properties":{"store":"HOLLISTER CA"}},
{"type":"Feature","id":"K3749","geometry":{"type":"Point","coordinates":[-112.5058, 45.9782]},"properties":{"store":"BUTTE MT"}},
{"type":"Feature","id":"K3750","geometry":{"type":"Point","coordinates":[-89.1019, 44.3593]},"properties":{"store":"WAUPACA WI"}},
{"type":"Feature","id":"K3754","geometry":{"type":"Point","coordinates":[-79.874, 36.6508]},"properties":{"store":"MARTINSVILLE VA"}},
{"type":"Feature","id":"K3758","geometry":{"type":"Point","coordinates":[-89.9867, 38.6927]},"properties":{"store":"COLLINSVILLE IL"}},
{"type":"Feature","id":"K3761","geometry":{"type":"Point","coordinates":[-82.1864, 28.2655]},"properties":{"store":"ZEPHYRHILLS FL"}},
{"type":"Feature","id":"K3764","geometry":{"type":"Point","coordinates":[-120.834, 37.0547]},"properties":{"store":"LOS BANOS CA"}},
{"type":"Feature","id":"K3765","geometry":{"type":"Point","coordinates":[-111.6566, 40.2183]},"properties":{"store":"PROVO UT"}},
{"type":"Feature","id":"K3767","geometry":{"type":"Point","coordinates":[-83.8499, 39.9459]},"properties":{"store":"SPRINGFIELD OH"}},
{"type":"Feature","id":"K3769","geometry":{"type":"Point","coordinates":[-88.5844, 44.7835]},"properties":{"store":"SHAWANO WI"}},
{"type":"Feature","id":"K3773","geometry":{"type":"Point","coordinates":[-82.7957, 36.1753]},"properties":{"store":"GREENEVILLE TN"}},
{"type":"Feature","id":"K3774","geometry":{"type":"Point","coordinates":[-87.8475, 42.704]},"properties":{"store":"RACINE WI"}},
{"type":"Feature","id":"K3775","geometry":{"type":"Point","coordinates":[-95.8698, 46.8254]},"properties":{"store":"DETROIT LAKES MN"}},
{"type":"Feature","id":"K3777","geometry":{"type":"Point","coordinates":[-93.1978, 44.4292]},"properties":{"store":"DUNDAS MN"}},
{"type":"Feature","id":"K3780","geometry":{"type":"Point","coordinates":[-95.7594, 44.4462]},"properties":{"store":"MARSHALL MN"}},
{"type":"Feature","id":"K3781","geometry":{"type":"Point","coordinates":[-92.1697, 46.7378]},"properties":{"store":"DULUTH MN"}},
{"type":"Feature","id":"K3784","geometry":{"type":"Point","coordinates":[-83.1328, 41.3702]},"properties":{"store":"FREMONT OH"}},
{"type":"Feature","id":"K3785","geometry":{"type":"Point","coordinates":[-76.466, 37.1136]},"properties":{"store":"TABB VA"}},
{"type":"Feature","id":"K3793","geometry":{"type":"Point","coordinates":[-80.3956, 25.7593]},"properties":{"store":"MIAMI FL"}},
{"type":"Feature","id":"K3795","geometry":{"type":"Point","coordinates":[-77.524, 38.2931]},"properties":{"store":"FREDERICKSBURG VA"}},
{"type":"Feature","id":"K3796","geometry":{"type":"Point","coordinates":[-76.8531, 38.9892]},"properties":{"store":"GREENBELT MD"}},
{"type":"Feature","id":"K3798","geometry":{"type":"Point","coordinates":[-76.9853, 38.9676]},"properties":{"store":"HYATTSVILLE MD"}},
{"type":"Feature","id":"K3800","geometry":{"type":"Point","coordinates":[-75.7338, 39.6797]},"properties":{"store":"NEWARK DE"}},
{"type":"Feature","id":"K3801","geometry":{"type":"Point","coordinates":[-76.1297, 36.8457]},"properties":{"store":"VIRGINIA BEACH VA"}},
{"type":"Feature","id":"K3807","geometry":{"type":"Point","coordinates":[-76.5945, 38.5569]},"properties":{"store":"PRINCE FREDERICK MD"}},
{"type":"Feature","id":"K3808","geometry":{"type":"Point","coordinates":[-80.8601, 35.7885]},"properties":{"store":"STATESVILLE NC"}},
{"type":"Feature","id":"K3810","geometry":{"type":"Point","coordinates":[-76.2802, 39.9825]},"properties":{"store":"WILLOW STREET PA"}},
{"type":"Feature","id":"K3812","geometry":{"type":"Point","coordinates":[-90.4268, 36.7798]},"properties":{"store":"POPLAR BLUFF MO"}},
{"type":"Feature","id":"K3814","geometry":{"type":"Point","coordinates":[-99.086, 40.7207]},"properties":{"store":"KEARNEY NE"}},
{"type":"Feature","id":"K3815","geometry":{"type":"Point","coordinates":[-77.323, 34.7183]},"properties":{"store":"MIDWAY PARK NC"}},
{"type":"Feature","id":"K3817","geometry":{"type":"Point","coordinates":[-78.879, 33.6993]},"properties":{"store":"MYRTLE BEACH SC"}},
{"type":"Feature","id":"K3818","geometry":{"type":"Point","coordinates":[-80.1617, 26.0445]},"properties":{"store":"HOLLYWOOD FL"}},
{"type":"Feature","id":"K3819","geometry":{"type":"Point","coordinates":[-85.2976, 42.6473]},"properties":{"store":"HASTINGS MI"}},
{"type":"Feature","id":"K3820","geometry":{"type":"Point","coordinates":[-85.2537, 45.2994]},"properties":{"store":"CHARLEVOIX MI"}},
{"type":"Feature","id":"K3822","geometry":{"type":"Point","coordinates":[-85.9328, 36.9975]},"properties":{"store":"GLASGOW KY"}},
{"type":"Feature","id":"K3823","geometry":{"type":"Point","coordinates":[-86.9139, 38.3796]},"properties":{"store":"JASPER IN"}},
{"type":"Feature","id":"K3824","geometry":{"type":"Point","coordinates":[-80.4685, 41.2342]},"properties":{"store":"HERMITAGE PA"}},
{"type":"Feature","id":"K3825","geometry":{"type":"Point","coordinates":[-74.3771, 40.8642]},"properties":{"store":"PARSIPPANY NJ"}},
{"type":"Feature","id":"K3828","geometry":{"type":"Point","coordinates":[-117.158, 33.5204]},"properties":{"store":"TEMECULA CA"}},
{"type":"Feature","id":"K3829","geometry":{"type":"Point","coordinates":[-64.8913, 18.3378]},"properties":{"store":"ST THOMAS VI"}},
{"type":"Feature","id":"K3831","geometry":{"type":"Point","coordinates":[-87.9499, 43.7451]},"properties":{"store":"PLYMOUTH WI"}},
{"type":"Feature","id":"K3832","geometry":{"type":"Point","coordinates":[-90.1442, 46.4661]},"properties":{"store":"IRONWOOD MI"}},
{"type":"Feature","id":"K3833","geometry":{"type":"Point","coordinates":[-88.0419, 45.8064]},"properties":{"store":"IRON MOUNTAIN MI"}},
{"type":"Feature","id":"K3834","geometry":{"type":"Point","coordinates":[-118.317, 34.1885]},"properties":{"store":"BURBANK CA"}},
{"type":"Feature","id":"K3836","geometry":{"type":"Point","coordinates":[-84.8492, 35.2072]},"properties":{"store":"CLEVELAND TN"}},
{"type":"Feature","id":"K3837","geometry":{"type":"Point","coordinates":[-77.4653, 43.2094]},"properties":{"store":"WEBSTER NY"}},
{"type":"Feature","id":"K3839","geometry":{"type":"Point","coordinates":[-123.2524, 44.5869]},"properties":{"store":"CORVALLIS OR"}},
{"type":"Feature","id":"K3840","geometry":{"type":"Point","coordinates":[-122.5745, 45.3298]},"properties":{"store":"OREGON CITY OR"}},
{"type":"Feature","id":"K3841","geometry":{"type":"Point","coordinates":[-84.9871, 42.2727]},"properties":{"store":"MARSHALL MI"}},
{"type":"Feature","id":"K3842","geometry":{"type":"Point","coordinates":[-120.8294, 37.7714]},"properties":{"store":"OAKDALE CA"}},
{"type":"Feature","id":"K3845","geometry":{"type":"Point","coordinates":[-82.4367, 28.1838]},"properties":{"store":"LUTZ FL"}},
{"type":"Feature","id":"K3848","geometry":{"type":"Point","coordinates":[-87.6258, 34.8291]},"properties":{"store":"FLORENCE AL"}},
{"type":"Feature","id":"K3850","geometry":{"type":"Point","coordinates":[-84.7094, 38.0481]},"properties":{"store":"VERSAILLES KY"}},
{"type":"Feature","id":"K3851","geometry":{"type":"Point","coordinates":[-87.8072, 42.7874]},"properties":{"store":"RACINE WI"}},
{"type":"Feature","id":"K3852","geometry":{"type":"Point","coordinates":[-80.4643, 35.6595]},"properties":{"store":"SALISBURY NC"}},
{"type":"Feature","id":"K3853","geometry":{"type":"Point","coordinates":[-66.0995, 17.9809]},"properties":{"store":"GUAYAMA PR"}},
{"type":"Feature","id":"K3857","geometry":{"type":"Point","coordinates":[-114.9514, 36.017]},"properties":{"store":"HENDERSON NV"}},
{"type":"Feature","id":"K3858","geometry":{"type":"Point","coordinates":[-112.0678, 33.3794]},"properties":{"store":"PHOENIX AZ"}},
{"type":"Feature","id":"K3861","geometry":{"type":"Point","coordinates":[-73.3487, 40.6832]},"properties":{"store":"WEST BABYLON NY"}},
{"type":"Feature","id":"K3862","geometry":{"type":"Point","coordinates":[-73.0945, 40.7641]},"properties":{"store":"BOHEMIA NY"}},
{"type":"Feature","id":"K3864","geometry":{"type":"Point","coordinates":[-84.2238, 44.2728]},"properties":{"store":"WEST BRANCH MI"}},
{"type":"Feature","id":"K3865","geometry":{"type":"Point","coordinates":[-117.6676, 35.6378]},"properties":{"store":"RIDGECREST CA"}},
{"type":"Feature","id":"K3868","geometry":{"type":"Point","coordinates":[-77.4143, 37.3508]},"properties":{"store":"CHESTER VA"}},
{"type":"Feature","id":"K3869","geometry":{"type":"Point","coordinates":[-77.392, 37.2479]},"properties":{"store":"COLONIAL HEIGHTS VA"}},
{"type":"Feature","id":"K3873","geometry":{"type":"Point","coordinates":[-75.6921, 39.7388]},"properties":{"store":"WILMINGTON DE"}},
{"type":"Feature","id":"K3874","geometry":{"type":"Point","coordinates":[-82.6036, 28.9117]},"properties":{"store":"CRYSTAL RIVER FL"}},
{"type":"Feature","id":"K3876","geometry":{"type":"Point","coordinates":[-84.6234, 35.4537]},"properties":{"store":"ATHENS TN"}},
{"type":"Feature","id":"K3877","geometry":{"type":"Point","coordinates":[-79.8433, 38.8908]},"properties":{"store":"ELKINS WV"}},
{"type":"Feature","id":"K3879","geometry":{"type":"Point","coordinates":[-70.9993, 42.2139]},"properties":{"store":"BRAINTREE MA"}},
{"type":"Feature","id":"K3881","geometry":{"type":"Point","coordinates":[-114.6138, 33.6111]},"properties":{"store":"BLYTHE CA"}},
{"type":"Feature","id":"K3882","geometry":{"type":"Point","coordinates":[-67.1637, 18.2423]},"properties":{"store":"MAYAGUEZ PR"}},
{"type":"Feature","id":"K3884","geometry":{"type":"Point","coordinates":[-74.7208, 41.3516]},"properties":{"store":"MATAMORAS PA"}},
{"type":"Feature","id":"K3885","geometry":{"type":"Point","coordinates":[-75.2266, 41.5574]},"properties":{"store":"HONESDALE PA"}},
{"type":"Feature","id":"K3886","geometry":{"type":"Point","coordinates":[-82.6038, 35.5251]},"properties":{"store":"ASHEVILLE NC"}},
{"type":"Feature","id":"K3888","geometry":{"type":"Point","coordinates":[-121.213, 45.6167]},"properties":{"store":"THE DALLES OR"}},
{"type":"Feature","id":"K3890","geometry":{"type":"Point","coordinates":[-104.8295, 39.9746]},"properties":{"store":"BRIGHTON CO"}},
{"type":"Feature","id":"K3891","geometry":{"type":"Point","coordinates":[-104.7957, 41.1621]},"properties":{"store":"CHEYENNE WY"}},
{"type":"Feature","id":"K3893","geometry":{"type":"Point","coordinates":[-103.8202, 44.4751]},"properties":{"store":"SPEARFISH SD"}},
{"type":"Feature","id":"K3894","geometry":{"type":"Point","coordinates":[-115.7878, 40.838]},"properties":{"store":"ELKO NV"}},
{"type":"Feature","id":"K3895","geometry":{"type":"Point","coordinates":[-80.0168, 40.5518]},"properties":{"store":"PITTSBURGH PA"}},
{"type":"Feature","id":"K3896","geometry":{"type":"Point","coordinates":[-67.0312, 18.09]},"properties":{"store":"SAN GERMAN PR"}},
{"type":"Feature","id":"K3897","geometry":{"type":"Point","coordinates":[-93.4119, 45.2089]},"properties":{"store":"ANOKA MN"}},
{"type":"Feature","id":"K3910","geometry":{"type":"Point","coordinates":[-82.2118, 41.4197]},"properties":{"store":"LORAIN OH"}},
{"type":"Feature","id":"K3911","geometry":{"type":"Point","coordinates":[-76.452, 40.0384]},"properties":{"store":"COLUMBIA PA"}},
{"type":"Feature","id":"K3912","geometry":{"type":"Point","coordinates":[-79.3887, 40.2834]},"properties":{"store":"LATROBE PA"}},
{"type":"Feature","id":"K3914","geometry":{"type":"Point","coordinates":[-88.1224, 41.9492]},"properties":{"store":"BLOOMINGDALE IL"}},
{"type":"Feature","id":"K3916","geometry":{"type":"Point","coordinates":[-119.3331, 36.2264]},"properties":{"store":"TULARE CA"}},
{"type":"Feature","id":"K3919","geometry":{"type":"Point","coordinates":[-106.3011, 31.7676]},"properties":{"store":"EL PASO TX"}},
{"type":"Feature","id":"K3923","geometry":{"type":"Point","coordinates":[-110.9365, 31.3685]},"properties":{"store":"NOGALES AZ"}},
{"type":"Feature","id":"K3924","geometry":{"type":"Point","coordinates":[-110.0503, 34.2487]},"properties":{"store":"SHOW LOW AZ"}},
{"type":"Feature","id":"K3925","geometry":{"type":"Point","coordinates":[-80.075, 35.8589]},"properties":{"store":"THOMASVILLE NC"}},
{"type":"Feature","id":"K3929","geometry":{"type":"Point","coordinates":[-86.4195, 32.459]},"properties":{"store":"PRATTVILLE AL"}},
{"type":"Feature","id":"K3931","geometry":{"type":"Point","coordinates":[-86.6214, 33.6416]},"properties":{"store":"BIRMINGHAM AL"}},
{"type":"Feature","id":"K3933","geometry":{"type":"Point","coordinates":[-92.0314, 34.977]},"properties":{"store":"CABOT AR"}},
{"type":"Feature","id":"K3934","geometry":{"type":"Point","coordinates":[-91.7767, 37.9301]},"properties":{"store":"ROLLA MO"}},
{"type":"Feature","id":"K3938","geometry":{"type":"Point","coordinates":[-84.4586, 42.265]},"properties":{"store":"JACKSON MI"}},
{"type":"Feature","id":"K3941","geometry":{"type":"Point","coordinates":[-85.0731, 37.0619]},"properties":{"store":"RUSSELL SPRINGS KY"}},
{"type":"Feature","id":"K3942","geometry":{"type":"Point","coordinates":[-77.4233, 38.896]},"properties":{"store":"CHANTILLY VA"}},
{"type":"Feature","id":"K3943","geometry":{"type":"Point","coordinates":[-74.3068, 44.8459]},"properties":{"store":"MALONE NY"}},
{"type":"Feature","id":"K3945","geometry":{"type":"Point","coordinates":[-119.2461, 35.7898]},"properties":{"store":"DELANO CA"}},
{"type":"Feature","id":"K3946","geometry":{"type":"Point","coordinates":[-82.8478, 31.4914]},"properties":{"store":"DOUGLAS GA"}},
{"type":"Feature","id":"K3949","geometry":{"type":"Point","coordinates":[-75.3, 40.8409]},"properties":{"store":"WIND GAP PA"}},
{"type":"Feature","id":"K3951","geometry":{"type":"Point","coordinates":[-80.676, 40.3683]},"properties":{"store":"STEUBENVILLE OH"}},
{"type":"Feature","id":"K3954","geometry":{"type":"Point","coordinates":[-75.5924, 40.7632]},"properties":{"store":"WALNUTPORT PA"}},
{"type":"Feature","id":"K3956","geometry":{"type":"Point","coordinates":[-81.71, 26.182]},"properties":{"store":"NAPLES FL"}},
{"type":"Feature","id":"K3957","geometry":{"type":"Point","coordinates":[-81.7598, 32.4406]},"properties":{"store":"STATESBORO GA"}},
{"type":"Feature","id":"K3959","geometry":{"type":"Point","coordinates":[-84.0468, 41.8767]},"properties":{"store":"ADRIAN MI"}},
{"type":"Feature","id":"K3963","geometry":{"type":"Point","coordinates":[-76.5848, 40.1396]},"properties":{"store":"ELIZABETHTOWN PA"}},
{"type":"Feature","id":"K3967","geometry":{"type":"Point","coordinates":[-82.9149, 32.5493]},"properties":{"store":"DUBLIN GA"}},
{"type":"Feature","id":"K3968","geometry":{"type":"Point","coordinates":[-119.357, 35.6001]},"properties":{"store":"WASCO CA"}},
{"type":"Feature","id":"K3970","geometry":{"type":"Point","coordinates":[-90.4545, 42.7311]},"properties":{"store":"PLATTEVILLE WI"}},
{"type":"Feature","id":"K3971","geometry":{"type":"Point","coordinates":[-93.6142, 42.0096]},"properties":{"store":"AMES IA"}},
{"type":"Feature","id":"K3972","geometry":{"type":"Point","coordinates":[-64.7497, 17.7298]},"properties":{"store":"ST CROIX VI"}},
{"type":"Feature","id":"K3975","geometry":{"type":"Point","coordinates":[-87.0712, 30.6044]},"properties":{"store":"MILTON FL"}},
{"type":"Feature","id":"K3976","geometry":{"type":"Point","coordinates":[-75.999, 36.782]},"properties":{"store":"VIRGINIA BEACH VA"}},
{"type":"Feature","id":"K3978","geometry":{"type":"Point","coordinates":[-84.5624, 33.3792]},"properties":{"store":"PEACHTREE CITY GA"}},
{"type":"Feature","id":"K3981","geometry":{"type":"Point","coordinates":[-72.9708, 43.5857]},"properties":{"store":"RUTLAND VT"}},
{"type":"Feature","id":"K3982","geometry":{"type":"Point","coordinates":[-119.7842, 36.312]},"properties":{"store":"LEMOORE CA"}},
{"type":"Feature","id":"K3985","geometry":{"type":"Point","coordinates":[-81.9599, 27.979]},"properties":{"store":"LAKELAND FL"}},
{"type":"Feature","id":"K3988","geometry":{"type":"Point","coordinates":[-71.875, 41.9251]},"properties":{"store":"PUTNAM CT"}},
{"type":"Feature","id":"K3990","geometry":{"type":"Point","coordinates":[-74.1202, 40.8758]},"properties":{"store":"PASSAIC NJ"}},
{"type":"Feature","id":"K3991","geometry":{"type":"Point","coordinates":[-81.6357, 30.7851]},"properties":{"store":"KINGSLAND GA"}},
{"type":"Feature","id":"K3993","geometry":{"type":"Point","coordinates":[-66.5085, 18.047]},"properties":{"store":"JUANA DIAZ PR"}},
{"type":"Feature","id":"K3994","geometry":{"type":"Point","coordinates":[-83.2546, 33.1061]},"properties":{"store":"MILLEDGEVILLE GA"}},
{"type":"Feature","id":"K3996","geometry":{"type":"Point","coordinates":[-84.5783, 33.8171]},"properties":{"store":"MABLETON GA"}},
{"type":"Feature","id":"K3998","geometry":{"type":"Point","coordinates":[-119.3688, 36.5438]},"properties":{"store":"DINUBA CA"}},
{"type":"Feature","id":"K4000","geometry":{"type":"Point","coordinates":[-83.334, 42.3269]},"properties":{"store":"GARDEN CITY MI"}},
{"type":"Feature","id":"K4006","geometry":{"type":"Point","coordinates":[-85.6309, 38.2222]},"properties":{"store":"LOUISVILLE KY"}},
{"type":"Feature","id":"K4007","geometry":{"type":"Point","coordinates":[-118.1483, 34.0173]},"properties":{"store":"LOS ANGELES CA"}},
{"type":"Feature","id":"K4010","geometry":{"type":"Point","coordinates":[-79.9444, 40.5124]},"properties":{"store":"PITTSBURGH PA"}},
{"type":"Feature","id":"K4016","geometry":{"type":"Point","coordinates":[-82.4191, 34.8205]},"properties":{"store":"GREENVILLE SC"}},
{"type":"Feature","id":"K4018","geometry":{"type":"Point","coordinates":[-90.7001, 42.4893]},"properties":{"store":"DUBUQUE IA"}},
{"type":"Feature","id":"K4022","geometry":{"type":"Point","coordinates":[-97.0491, 47.9013]},"properties":{"store":"GRAND FORKS ND"}},
{"type":"Feature","id":"K4026","geometry":{"type":"Point","coordinates":[-94.8103, 39.7945]},"properties":{"store":"ST JOSEPH MO"}},
{"type":"Feature","id":"K4030","geometry":{"type":"Point","coordinates":[-87.6268, 40.1701]},"properties":{"store":"DANVILLE IL"}},
{"type":"Feature","id":"K4031","geometry":{"type":"Point","coordinates":[-88.9564, 40.4908]},"properties":{"store":"BLOOMINGTON IL"}},
{"type":"Feature","id":"K4033","geometry":{"type":"Point","coordinates":[-83.922, 36.0132]},"properties":{"store":"KNOXVILLE TN"}},
{"type":"Feature","id":"K4034","geometry":{"type":"Point","coordinates":[-76.1483, 43.1062]},"properties":{"store":"MATTYDALE NY"}},
{"type":"Feature","id":"K4047","geometry":{"type":"Point","coordinates":[-117.9168, 33.6554]},"properties":{"store":"COSTA MESA CA"}},
{"type":"Feature","id":"K4048","geometry":{"type":"Point","coordinates":[-89.6023, 39.7999]},"properties":{"store":"SPRINGFIELD IL"}},
{"type":"Feature","id":"K4051","geometry":{"type":"Point","coordinates":[-91.4663, 44.7959]},"properties":{"store":"EAU CLAIRE WI"}},
{"type":"Feature","id":"K4054","geometry":{"type":"Point","coordinates":[-79.7489, 40.59]},"properties":{"store":"NEW KENSINGTON PA"}},
{"type":"Feature","id":"K4057","geometry":{"type":"Point","coordinates":[-96.8008, 46.8445]},"properties":{"store":"FARGO ND"}},
{"type":"Feature","id":"K4059","geometry":{"type":"Point","coordinates":[-83.2446, 42.2676]},"properties":{"store":"TAYLOR MI"}},
{"type":"Feature","id":"K4062","geometry":{"type":"Point","coordinates":[-79.4249, 36.5835]},"properties":{"store":"DANVILLE VA"}},
{"type":"Feature","id":"K4064","geometry":{"type":"Point","coordinates":[-79.7774, 40.3686]},"properties":{"store":"NORTH VERSAILLES PA"}},
{"type":"Feature","id":"K4065","geometry":{"type":"Point","coordinates":[-85.191, 42.3166]},"properties":{"store":"BATTLE CREEK MI"}},
{"type":"Feature","id":"K4066","geometry":{"type":"Point","coordinates":[-84.368, 42.2529]},"properties":{"store":"JACKSON MI"}},
{"type":"Feature","id":"K4083","geometry":{"type":"Point","coordinates":[-83.7347, 42.9901]},"properties":{"store":"FLINT MI"}},
{"type":"Feature","id":"K4084","geometry":{"type":"Point","coordinates":[-79.1847, 37.3687]},"properties":{"store":"LYNCHBURG VA"}},
{"type":"Feature","id":"K4089","geometry":{"type":"Point","coordinates":[-91.2187, 43.7975]},"properties":{"store":"LA CROSSE WI"}},
{"type":"Feature","id":"K4090","geometry":{"type":"Point","coordinates":[-78.4895, 38.0615]},"properties":{"store":"CHARLOTTESVILLE VA"}},
{"type":"Feature","id":"K4091","geometry":{"type":"Point","coordinates":[-83.9115, 43.6227]},"properties":{"store":"BAY CITY MI"}},
{"type":"Feature","id":"K4093","geometry":{"type":"Point","coordinates":[-86.7265, 36.238]},"properties":{"store":"MADISON TN"}},
{"type":"Feature","id":"K4095","geometry":{"type":"Point","coordinates":[-88.1258, 41.5247]},"properties":{"store":"JOLIET IL"}},
{"type":"Feature","id":"K4098","geometry":{"type":"Point","coordinates":[-83.387, 41.9345]},"properties":{"store":"MONROE MI"}},
{"type":"Feature","id":"K4105","geometry":{"type":"Point","coordinates":[-83.7833, 42.2831]},"properties":{"store":"ANN ARBOR MI"}},
{"type":"Feature","id":"K4112","geometry":{"type":"Point","coordinates":[-82.5909, 35.589]},"properties":{"store":"ASHEVILLE NC"}},
{"type":"Feature","id":"K4113","geometry":{"type":"Point","coordinates":[-80.1367, 42.0866]},"properties":{"store":"ERIE PA"}},
{"type":"Feature","id":"K4117","geometry":{"type":"Point","coordinates":[-121.4461, 38.5286]},"properties":{"store":"SACRAMENTO CA"}},
{"type":"Feature","id":"K4123","geometry":{"type":"Point","coordinates":[-78.9859, 43.1069]},"properties":{"store":"NIAGARA FALLS NY"}},
{"type":"Feature","id":"K4128","geometry":{"type":"Point","coordinates":[-93.2215, 30.1842]},"properties":{"store":"LAKE CHARLES LA"}},
{"type":"Feature","id":"K4129","geometry":{"type":"Point","coordinates":[-105.1084, 39.8033]},"properties":{"store":"ARVADA CO"}},
{"type":"Feature","id":"K4130","geometry":{"type":"Point","coordinates":[-95.9916, 41.2145]},"properties":{"store":"OMAHA NE"}},
{"type":"Feature","id":"K4131","geometry":{"type":"Point","coordinates":[-104.9908, 39.6231]},"properties":{"store":"ENGLEWOOD CO"}},
{"type":"Feature","id":"K4135","geometry":{"type":"Point","coordinates":[-82.0191, 33.4411]},"properties":{"store":"AUGUSTA GA"}},
{"type":"Feature","id":"K4136","geometry":{"type":"Point","coordinates":[-106.6023, 35.1033]},"properties":{"store":"ALBUQUERQUE NM"}},
{"type":"Feature","id":"K4141","geometry":{"type":"Point","coordinates":[-81.0792, 33.9723]},"properties":{"store":"WEST COLUMBIA SC"}},
{"type":"Feature","id":"K4146","geometry":{"type":"Point","coordinates":[-122.2274, 47.9252]},"properties":{"store":"EVERETT WA"}},
{"type":"Feature","id":"K4147","geometry":{"type":"Point","coordinates":[-117.3496, 47.656]},"properties":{"store":"SPOKANE WA"}},
{"type":"Feature","id":"K4150","geometry":{"type":"Point","coordinates":[-78.4088, 40.4715]},"properties":{"store":"ALTOONA PA"}},
{"type":"Feature","id":"K4151","geometry":{"type":"Point","coordinates":[-119.7727, 39.5442]},"properties":{"store":"SPARKS NV"}},
{"type":"Feature","id":"K4152","geometry":{"type":"Point","coordinates":[-86.1881, 41.6826]},"properties":{"store":"MISHAWAKA IN"}},
{"type":"Feature","id":"K4156","geometry":{"type":"Point","coordinates":[-93.7206, 41.6163]},"properties":{"store":"URBANDALE IA"}},
{"type":"Feature","id":"K4158","geometry":{"type":"Point","coordinates":[-92.4009, 42.5062]},"properties":{"store":"WATERLOO IA"}},
{"type":"Feature","id":"K4159","geometry":{"type":"Point","coordinates":[-111.8674, 40.669]},"properties":{"store":"SALT LAKE CITY UT"}},
{"type":"Feature","id":"K4160","geometry":{"type":"Point","coordinates":[-93.5679, 41.6094]},"properties":{"store":"DES MOINES IA"}},
{"type":"Feature","id":"K4162","geometry":{"type":"Point","coordinates":[-111.9405, 40.6836]},"properties":{"store":"SALT LAKE CITY UT"}},
{"type":"Feature","id":"K4163","geometry":{"type":"Point","coordinates":[-83.3856, 42.3089]},"properties":{"store":"WESTLAND MI"}},
{"type":"Feature","id":"K4168","geometry":{"type":"Point","coordinates":[-83.4811, 41.6351]},"properties":{"store":"OREGON OH"}},
{"type":"Feature","id":"K4169","geometry":{"type":"Point","coordinates":[-81.4861, 40.7986]},"properties":{"store":"MASSILLON OH"}},
{"type":"Feature","id":"K4170","geometry":{"type":"Point","coordinates":[-103.1934, 44.0864]},"properties":{"store":"RAPID CITY SD"}},
{"type":"Feature","id":"K4171","geometry":{"type":"Point","coordinates":[-97.3927, 37.6761]},"properties":{"store":"WICHITA KS"}},
{"type":"Feature","id":"K4175","geometry":{"type":"Point","coordinates":[-81.3286, 40.839]},"properties":{"store":"CANTON OH"}},
{"type":"Feature","id":"K4176","geometry":{"type":"Point","coordinates":[-78.76, 42.9057]},"properties":{"store":"CHEEKTOWAGA NY"}},
{"type":"Feature","id":"K4177","geometry":{"type":"Point","coordinates":[-82.9106, 42.465]},"properties":{"store":"ST CLAIR SHORES MI"}},
{"type":"Feature","id":"K4178","geometry":{"type":"Point","coordinates":[-122.5081, 47.2543]},"properties":{"store":"TACOMA WA"}},
{"type":"Feature","id":"K4179","geometry":{"type":"Point","coordinates":[-84.1219, 39.7581]},"properties":{"store":"DAYTON OH"}},
{"type":"Feature","id":"K4188","geometry":{"type":"Point","coordinates":[-81.6681, 38.3696]},"properties":{"store":"CHARLESTON WV"}},
{"type":"Feature","id":"K4189","geometry":{"type":"Point","coordinates":[-81.125, 31.9976]},"properties":{"store":"SAVANNAH GA"}},
{"type":"Feature","id":"K4198","geometry":{"type":"Point","coordinates":[-84.9415, 32.4799]},"properties":{"store":"COLUMBUS GA"}},
{"type":"Feature","id":"K4201","geometry":{"type":"Point","coordinates":[-106.3558, 31.7611]},"properties":{"store":"EL PASO TX"}},
{"type":"Feature","id":"K4203","geometry":{"type":"Point","coordinates":[-86.0361, 39.7707]},"properties":{"store":"INDIANAPOLIS IN"}},
{"type":"Feature","id":"K4204","geometry":{"type":"Point","coordinates":[-82.9856, 42.5236]},"properties":{"store":"WARREN MI"}},
{"type":"Feature","id":"K4205","geometry":{"type":"Point","coordinates":[-106.4189, 31.8794]},"properties":{"store":"EL PASO TX"}},
{"type":"Feature","id":"K4206","geometry":{"type":"Point","coordinates":[-83.0828, 42.4747]},"properties":{"store":"WARREN MI"}},
{"type":"Feature","id":"K4213","geometry":{"type":"Point","coordinates":[-91.0111, 33.3983]},"properties":{"store":"GREENVILLE MS"}},
{"type":"Feature","id":"K4214","geometry":{"type":"Point","coordinates":[-87.8955, 42.0223]},"properties":{"store":"DES PLAINES IL"}},
{"type":"Feature","id":"K4215","geometry":{"type":"Point","coordinates":[-94.7626, 39.1183]},"properties":{"store":"KANSAS CITY KS"}},
{"type":"Feature","id":"K4219","geometry":{"type":"Point","coordinates":[-88.0677, 44.5038]},"properties":{"store":"GREEN BAY WI"}},
{"type":"Feature","id":"K4220","geometry":{"type":"Point","coordinates":[-94.5456, 39.1859]},"properties":{"store":"KANSAS CITY MO"}},
{"type":"Feature","id":"K4229","geometry":{"type":"Point","coordinates":[-80.7346, 41.1001]},"properties":{"store":"AUSTINTOWN OH"}},
{"type":"Feature","id":"K4232","geometry":{"type":"Point","coordinates":[-84.518, 37.9992]},"properties":{"store":"LEXINGTON KY"}},
{"type":"Feature","id":"K4233","geometry":{"type":"Point","coordinates":[-80.632, 41.0225]},"properties":{"store":"YOUNGSTOWN OH"}},
{"type":"Feature","id":"K4235","geometry":{"type":"Point","coordinates":[-87.7255, 41.7651]},"properties":{"store":"CHICAGO IL"}},
{"type":"Feature","id":"K4243","geometry":{"type":"Point","coordinates":[-80.1374, 26.1647]},"properties":{"store":"OAKLAND PARK FL"}},
{"type":"Feature","id":"K4245","geometry":{"type":"Point","coordinates":[-82.4572, 28.0245]},"properties":{"store":"TAMPA FL"}},
{"type":"Feature","id":"K4253","geometry":{"type":"Point","coordinates":[-122.4091, 47.1902]},"properties":{"store":"TACOMA WA"}},
{"type":"Feature","id":"K4255","geometry":{"type":"Point","coordinates":[-88.9942, 42.7215]},"properties":{"store":"JANESVILLE WI"}},
{"type":"Feature","id":"K4257","geometry":{"type":"Point","coordinates":[-81.8258, 41.3739]},"properties":{"store":"CLEVELAND OH"}},
{"type":"Feature","id":"K4272","geometry":{"type":"Point","coordinates":[-100.7698, 46.8355]},"properties":{"store":"BISMARCK ND"}},
{"type":"Feature","id":"K4275","geometry":{"type":"Point","coordinates":[-76.9878, 40.2392]},"properties":{"store":"MECHANICSBURG PA"}},
{"type":"Feature","id":"K4281","geometry":{"type":"Point","coordinates":[-117.8885, 34.1007]},"properties":{"store":"COVINA CA"}},
{"type":"Feature","id":"K4288","geometry":{"type":"Point","coordinates":[-122.5352, 45.5552]},"properties":{"store":"PORTLAND OR"}},
{"type":"Feature","id":"K4292","geometry":{"type":"Point","coordinates":[-80.312, 25.865]},"properties":{"store":"HIALEAH FL"}},
{"type":"Feature","id":"K4293","geometry":{"type":"Point","coordinates":[-88.9431, 39.8764]},"properties":{"store":"DECATUR IL"}},
{"type":"Feature","id":"K4295","geometry":{"type":"Point","coordinates":[-80.1732, 25.8736]},"properties":{"store":"NORTH MIAMI FL"}},
{"type":"Feature","id":"K4297","geometry":{"type":"Point","coordinates":[-90.467, 41.4878]},"properties":{"store":"MOLINE IL"}},
{"type":"Feature","id":"K4303","geometry":{"type":"Point","coordinates":[-108.5787, 45.7682]},"properties":{"store":"BILLINGS MT"}},
{"type":"Feature","id":"K4304","geometry":{"type":"Point","coordinates":[-90.299, 38.8118]},"properties":{"store":"FLORISSANT MO"}},
{"type":"Feature","id":"K4311","geometry":{"type":"Point","coordinates":[-82.3089, 27.9392]},"properties":{"store":"BRANDON FL"}},
{"type":"Feature","id":"K4312","geometry":{"type":"Point","coordinates":[-86.603, 34.747]},"properties":{"store":"HUNTSVILLE AL"}},
{"type":"Feature","id":"K4313","geometry":{"type":"Point","coordinates":[-76.6836, 39.9594]},"properties":{"store":"YORK PA"}},
{"type":"Feature","id":"K4315","geometry":{"type":"Point","coordinates":[-91.5231, 41.641]},"properties":{"store":"IOWA CITY IA"}},
{"type":"Feature","id":"K4317","geometry":{"type":"Point","coordinates":[-79.8059, 34.1934]},"properties":{"store":"FLORENCE SC"}},
{"type":"Feature","id":"K4319","geometry":{"type":"Point","coordinates":[-80.9563, 34.0679]},"properties":{"store":"COLUMBIA SC"}},
{"type":"Feature","id":"K4320","geometry":{"type":"Point","coordinates":[-118.1114, 33.9007]},"properties":{"store":"BELLFLOWER CA"}},
{"type":"Feature","id":"K4327","geometry":{"type":"Point","coordinates":[-82.73, 28.2426]},"properties":{"store":"NEW PORT RICHEY FL"}},
{"type":"Feature","id":"K4331","geometry":{"type":"Point","coordinates":[-83.3572, 42.6406]},"properties":{"store":"WATERFORD MI"}},
{"type":"Feature","id":"K4332","geometry":{"type":"Point","coordinates":[-104.8217, 38.8759]},"properties":{"store":"COLORADO SPRINGS CO"}},
{"type":"Feature","id":"K4334","geometry":{"type":"Point","coordinates":[-80.0011, 42.1455]},"properties":{"store":"ERIE PA"}},
{"type":"Feature","id":"K4339","geometry":{"type":"Point","coordinates":[-123.0119, 44.921]},"properties":{"store":"SALEM OR"}},
{"type":"Feature","id":"K4340","geometry":{"type":"Point","coordinates":[-122.7347, 38.4781]},"properties":{"store":"SANTA ROSA CA"}},
{"type":"Feature","id":"K4344","geometry":{"type":"Point","coordinates":[-75.5606, 40.5915]},"properties":{"store":"ALLENTOWN PA"}},
{"type":"Feature","id":"K4349","geometry":{"type":"Point","coordinates":[-122.2226, 37.4911]},"properties":{"store":"REDWOOD CITY CA"}},
{"type":"Feature","id":"K4351","geometry":{"type":"Point","coordinates":[-92.46, 44.0139]},"properties":{"store":"ROCHESTER MN"}},
{"type":"Feature","id":"K4353","geometry":{"type":"Point","coordinates":[-101.2915, 48.2124]},"properties":{"store":"MINOT ND"}},
{"type":"Feature","id":"K4355","geometry":{"type":"Point","coordinates":[-82.7265, 27.8127]},"properties":{"store":"ST PETERSBURG FL"}},
{"type":"Feature","id":"K4361","geometry":{"type":"Point","coordinates":[-74.18, 40.4168]},"properties":{"store":"HAZLET NJ"}},
{"type":"Feature","id":"K4362","geometry":{"type":"Point","coordinates":[-75.3147, 43.0889]},"properties":{"store":"NEW HARTFORD NY"}},
{"type":"Feature","id":"K4364","geometry":{"type":"Point","coordinates":[-119.0419, 35.3337]},"properties":{"store":"BAKERSFIELD CA"}},
{"type":"Feature","id":"K4369","geometry":{"type":"Point","coordinates":[-115.1112, 36.1428]},"properties":{"store":"LAS VEGAS NV"}},
{"type":"Feature","id":"K4371","geometry":{"type":"Point","coordinates":[-120.4341, 34.9071]},"properties":{"store":"SANTA MARIA CA"}},
{"type":"Feature","id":"K4373","geometry":{"type":"Point","coordinates":[-76.322, 40.0725]},"properties":{"store":"LANCASTER PA"}},
{"type":"Feature","id":"K4375","geometry":{"type":"Point","coordinates":[-89.6062, 40.5507]},"properties":{"store":"PEKIN IL"}},
{"type":"Feature","id":"K4377","geometry":{"type":"Point","coordinates":[-86.4917, 39.1622]},"properties":{"store":"BLOOMINGTON IN"}},
{"type":"Feature","id":"K4380","geometry":{"type":"Point","coordinates":[-88.0499, 43.0768]},"properties":{"store":"WAUWATOSA WI"}},
{"type":"Feature","id":"K4381","geometry":{"type":"Point","coordinates":[-87.8015, 41.7471]},"properties":{"store":"BRIDGEVIEW IL"}},
{"type":"Feature","id":"K4382","geometry":{"type":"Point","coordinates":[-84.5509, 42.6796]},"properties":{"store":"LANSING MI"}},
{"type":"Feature","id":"K4389","geometry":{"type":"Point","coordinates":[-98.2305, 26.1877]},"properties":{"store":"MC ALLEN TX"}},
{"type":"Feature","id":"K4395","geometry":{"type":"Point","coordinates":[-87.8626, 42.9341]},"properties":{"store":"CUDAHY WI"}},
{"type":"Feature","id":"K4397","geometry":{"type":"Point","coordinates":[-74.5391, 40.8763]},"properties":{"store":"DOVER NJ"}},
{"type":"Feature","id":"K4399","geometry":{"type":"Point","coordinates":[-77.0761, 39.0859]},"properties":{"store":"SILVER SPRING MD"}},
{"type":"Feature","id":"K4405","geometry":{"type":"Point","coordinates":[-82.924, 42.5516]},"properties":{"store":"CLINTON TOWNSHIP MI"}},
{"type":"Feature","id":"K4407","geometry":{"type":"Point","coordinates":[-71.0124, 42.0457]},"properties":{"store":"BROCKTON MA"}},
{"type":"Feature","id":"K4415","geometry":{"type":"Point","coordinates":[-81.056, 29.1987]},"properties":{"store":"DAYTONA BEACH FL"}},
{"type":"Feature","id":"K4420","geometry":{"type":"Point","coordinates":[-82.0858, 29.2003]},"properties":{"store":"OCALA FL"}},
{"type":"Feature","id":"K4421","geometry":{"type":"Point","coordinates":[-118.4169, 34.2027]},"properties":{"store":"NORTH HOLLYWOOD CA"}},
{"type":"Feature","id":"K4423","geometry":{"type":"Point","coordinates":[-89.0014, 42.2646]},"properties":{"store":"ROCKFORD IL"}},
{"type":"Feature","id":"K4427","geometry":{"type":"Point","coordinates":[-94.3838, 39.1197]},"properties":{"store":"INDEPENDENCE MO"}},
{"type":"Feature","id":"K4429","geometry":{"type":"Point","coordinates":[-79.7894, 40.431]},"properties":{"store":"MONROEVILLE PA"}},
{"type":"Feature","id":"K4430","geometry":{"type":"Point","coordinates":[-83.3767, 42.4275]},"properties":{"store":"LIVONIA MI"}},
{"type":"Feature","id":"K4432","geometry":{"type":"Point","coordinates":[-117.3416, 33.9849]},"properties":{"store":"RIVERSIDE CA"}},
{"type":"Feature","id":"K4433","geometry":{"type":"Point","coordinates":[-91.3562, 39.9366]},"properties":{"store":"QUINCY IL"}},
{"type":"Feature","id":"K4435","geometry":{"type":"Point","coordinates":[-122.4372, 45.509]},"properties":{"store":"GRESHAM OR"}},
{"type":"Feature","id":"K4438","geometry":{"type":"Point","coordinates":[-86.1505, 39.7276]},"properties":{"store":"INDIANAPOLIS IN"}},
{"type":"Feature","id":"K4439","geometry":{"type":"Point","coordinates":[-120.4694, 46.5832]},"properties":{"store":"YAKIMA WA"}},
{"type":"Feature","id":"K4442","geometry":{"type":"Point","coordinates":[-81.5648, 38.3028]},"properties":{"store":"CHARLESTON WV"}},
{"type":"Feature","id":"K4444","geometry":{"type":"Point","coordinates":[-71.7822, 42.5537]},"properties":{"store":"FITCHBURG MA"}},
{"type":"Feature","id":"K4445","geometry":{"type":"Point","coordinates":[-80.2163, 40.5175]},"properties":{"store":"MOON TWP PA"}},
{"type":"Feature","id":"K4448","geometry":{"type":"Point","coordinates":[-71.2174, 42.7688]},"properties":{"store":"SALEM NH"}},
{"type":"Feature","id":"K4450","geometry":{"type":"Point","coordinates":[-78.7014, 35.7863]},"properties":{"store":"RALEIGH NC"}},
{"type":"Feature","id":"K4453","geometry":{"type":"Point","coordinates":[-104.6172, 38.306]},"properties":{"store":"PUEBLO CO"}},
{"type":"Feature","id":"K4455","geometry":{"type":"Point","coordinates":[-122.828, 45.4914]},"properties":{"store":"BEAVERTON OR"}},
{"type":"Feature","id":"K4457","geometry":{"type":"Point","coordinates":[-122.0678, 37.6494]},"properties":{"store":"HAYWARD CA"}},
{"type":"Feature","id":"K4460","geometry":{"type":"Point","coordinates":[-68.7445, 44.8375]},"properties":{"store":"BANGOR ME"}},
{"type":"Feature","id":"K4465","geometry":{"type":"Point","coordinates":[-96.3354, 42.474]},"properties":{"store":"SIOUX CITY IA"}},
{"type":"Feature","id":"K4470","geometry":{"type":"Point","coordinates":[-74.0295, 40.2977]},"properties":{"store":"WEST LONG BRANCH NJ"}},
{"type":"Feature","id":"K4471","geometry":{"type":"Point","coordinates":[-105.0792, 40.5542]},"properties":{"store":"FORT COLLINS CO"}},
{"type":"Feature","id":"K4473","geometry":{"type":"Point","coordinates":[-95.8625, 36.1349]},"properties":{"store":"TULSA OK"}},
{"type":"Feature","id":"K4478","geometry":{"type":"Point","coordinates":[-74.6929, 40.2056]},"properties":{"store":"TRENTON NJ"}},
{"type":"Feature","id":"K4479","geometry":{"type":"Point","coordinates":[-76.8066, 40.3091]},"properties":{"store":"HARRISBURG PA"}},
{"type":"Feature","id":"K4481","geometry":{"type":"Point","coordinates":[-83.4433, 42.358]},"properties":{"store":"PLYMOUTH MI"}},
{"type":"Feature","id":"K4483","geometry":{"type":"Point","coordinates":[-77.188, 38.8308]},"properties":{"store":"ANNANDALE VA"}},
{"type":"Feature","id":"K4488","geometry":{"type":"Point","coordinates":[-83.1361, 42.665]},"properties":{"store":"ROCHESTER HILLS MI"}},
{"type":"Feature","id":"K4490","geometry":{"type":"Point","coordinates":[-66.1074, 18.4076]},"properties":{"store":"SAN JUAN PR"}},
{"type":"Feature","id":"K4494","geometry":{"type":"Point","coordinates":[-66.0182, 18.3698]},"properties":{"store":"TRUJILLO ALTO PR"}},
{"type":"Feature","id":"K4700","geometry":{"type":"Point","coordinates":[-83.739, 42.7919]},"properties":{"store":"FENTON MI"}},
{"type":"Feature","id":"K4701","geometry":{"type":"Point","coordinates":[-81.1882, 37.2634]},"properties":{"store":"BLUEFIELD WV"}},
{"type":"Feature","id":"K4704","geometry":{"type":"Point","coordinates":[-98.8611, 48.1025]},"properties":{"store":"DEVILS LAKE ND"}},
{"type":"Feature","id":"K4705","geometry":{"type":"Point","coordinates":[-119.5654, 36.5194]},"properties":{"store":"KINGSBURG CA"}},
{"type":"Feature","id":"K4706","geometry":{"type":"Point","coordinates":[-117.3255, 33.9136]},"properties":{"store":"RIVERSIDE CA"}},
{"type":"Feature","id":"K4708","geometry":{"type":"Point","coordinates":[-98.3107, 26.2014]},"properties":{"store":"MISSION TX"}},
{"type":"Feature","id":"K4709","geometry":{"type":"Point","coordinates":[-68.0036, 46.6989]},"properties":{"store":"PRESQUE ISLE ME"}},
{"type":"Feature","id":"K4713","geometry":{"type":"Point","coordinates":[-76.4193, 41.7671]},"properties":{"store":"TOWANDA PA"}},
{"type":"Feature","id":"K4715","geometry":{"type":"Point","coordinates":[-81.4865, 27.4884]},"properties":{"store":"SEBRING FL"}},
{"type":"Feature","id":"K4716","geometry":{"type":"Point","coordinates":[-77.8099, 35.9722]},"properties":{"store":"ROCKY MOUNT NC"}},
{"type":"Feature","id":"K4717","geometry":{"type":"Point","coordinates":[-84.2545, 36.0045]},"properties":{"store":"OAK RIDGE TN"}},
{"type":"Feature","id":"K4719","geometry":{"type":"Point","coordinates":[-85.1626, 34.2544]},"properties":{"store":"ROME GA"}},
{"type":"Feature","id":"K4720","geometry":{"type":"Point","coordinates":[-90.3009, 38.6174]},"properties":{"store":"ST LOUIS MO"}},
{"type":"Feature","id":"K4721","geometry":{"type":"Point","coordinates":[-120.3629, 36.1347]},"properties":{"store":"COALINGA CA"}},
{"type":"Feature","id":"K4725","geometry":{"type":"Point","coordinates":[-81.7688, 24.5651]},"properties":{"store":"KEY WEST FL"}},
{"type":"Feature","id":"K4726","geometry":{"type":"Point","coordinates":[-79.2926, 42.0946]},"properties":{"store":"JAMESTOWN NY"}},
{"type":"Feature","id":"K4728","geometry":{"type":"Point","coordinates":[-80.2587, 25.7798]},"properties":{"store":"MIAMI FL"}},
{"type":"Feature","id":"K4729","geometry":{"type":"Point","coordinates":[-87.6683, 41.9067]},"properties":{"store":"CHICAGO IL"}},
{"type":"Feature","id":"K4732","geometry":{"type":"Point","coordinates":[-67.148, 18.4263]},"properties":{"store":"AGUADILLA PR"}},
{"type":"Feature","id":"K4735","geometry":{"type":"Point","coordinates":[-98.02, 43.6974]},"properties":{"store":"MITCHELL SD"}},
{"type":"Feature","id":"K4736","geometry":{"type":"Point","coordinates":[-106.2759, 42.8506]},"properties":{"store":"CASPER WY"}},
{"type":"Feature","id":"K4739","geometry":{"type":"Point","coordinates":[-87.2986, 36.5859]},"properties":{"store":"CLARKSVILLE TN"}},
{"type":"Feature","id":"K4741","geometry":{"type":"Point","coordinates":[-78.207, 43.0095]},"properties":{"store":"BATAVIA NY"}},
{"type":"Feature","id":"K4743","geometry":{"type":"Point","coordinates":[-90.4237, 38.7463]},"properties":{"store":"BRIDGETON MO"}},
{"type":"Feature","id":"K4745","geometry":{"type":"Point","coordinates":[-80.7496, 41.8834]},"properties":{"store":"ASHTABULA OH"}},
{"type":"Feature","id":"K4747","geometry":{"type":"Point","coordinates":[-84.2568, 39.5606]},"properties":{"store":"SPRINGBORO OH"}},
{"type":"Feature","id":"K4748","geometry":{"type":"Point","coordinates":[-111.9724, 43.4836]},"properties":{"store":"AMMON ID"}},
{"type":"Feature","id":"K4749","geometry":{"type":"Point","coordinates":[-117.6181, 34.0765]},"properties":{"store":"ONTARIO CA"}},
{"type":"Feature","id":"K4751","geometry":{"type":"Point","coordinates":[-118.4586, 35.1312]},"properties":{"store":"TEHACHAPI CA"}},
{"type":"Feature","id":"K4753","geometry":{"type":"Point","coordinates":[-85.8849, 37.7365]},"properties":{"store":"ELIZABETHTOWN KY"}},
{"type":"Feature","id":"K4757","geometry":{"type":"Point","coordinates":[-79.9668, 36.3962]},"properties":{"store":"MADISON NC"}},
{"type":"Feature","id":"K4758","geometry":{"type":"Point","coordinates":[-80.6155, 35.4119]},"properties":{"store":"CONCORD NC"}},
{"type":"Feature","id":"K4760","geometry":{"type":"Point","coordinates":[-85.033, 32.4802]},"properties":{"store":"PHENIX CITY AL"}},
{"type":"Feature","id":"K4762","geometry":{"type":"Point","coordinates":[-121.755, 38.0071]},"properties":{"store":"ANTIOCH CA"}},
{"type":"Feature","id":"K4769","geometry":{"type":"Point","coordinates":[-86.2778, 33.5799]},"properties":{"store":"PELL CITY AL"}},
{"type":"Feature","id":"K4770","geometry":{"type":"Point","coordinates":[-80.1271, 40.267]},"properties":{"store":"MCMURRAY PA"}},
{"type":"Feature","id":"K4771","geometry":{"type":"Point","coordinates":[-79.9081, 40.8569]},"properties":{"store":"BUTLER PA"}},
{"type":"Feature","id":"K4772","geometry":{"type":"Point","coordinates":[-77.5767, 40.6299]},"properties":{"store":"BURNHAM PA"}},
{"type":"Feature","id":"K4777","geometry":{"type":"Point","coordinates":[-80.8791, 35.0902]},"properties":{"store":"PINEVILLE NC"}},
{"type":"Feature","id":"K4781","geometry":{"type":"Point","coordinates":[-90.6533, 40.4567]},"properties":{"store":"MACOMB IL"}},
{"type":"Feature","id":"K4782","geometry":{"type":"Point","coordinates":[-98.9895, 35.4987]},"properties":{"store":"CLINTON OK"}},
{"type":"Feature","id":"K4783","geometry":{"type":"Point","coordinates":[-90.0068, 40.5592]},"properties":{"store":"CANTON IL"}},
{"type":"Feature","id":"K4793","geometry":{"type":"Point","coordinates":[-79.8856, 40.4281]},"properties":{"store":"PITTSBURGH PA"}},
{"type":"Feature","id":"K4795","geometry":{"type":"Point","coordinates":[-84.7869, 44.3288]},"properties":{"store":"HOUGHTON LAKE MI"}},
{"type":"Feature","id":"K4796","geometry":{"type":"Point","coordinates":[-85.281, 43.1797]},"properties":{"store":"GREENVILLE MI"}},
{"type":"Feature","id":"K4807","geometry":{"type":"Point","coordinates":[-75.6636, 39.634]},"properties":{"store":"BEAR DE"}},
{"type":"Feature","id":"K4808","geometry":{"type":"Point","coordinates":[-100.395, 32.449]},"properties":{"store":"SWEETWATER TX"}},
{"type":"Feature","id":"K4809","geometry":{"type":"Point","coordinates":[-99.5015, 27.5456]},"properties":{"store":"LAREDO TX"}},
{"type":"Feature","id":"K4810","geometry":{"type":"Point","coordinates":[-90.1527, 30.0016]},"properties":{"store":"METAIRIE LA"}},
{"type":"Feature","id":"K4812","geometry":{"type":"Point","coordinates":[-71.3504, 41.9]},"properties":{"store":"S ATTLEBORO MA"}},
{"type":"Feature","id":"K4813","geometry":{"type":"Point","coordinates":[-97.3948, 42.8935]},"properties":{"store":"YANKTON SD"}},
{"type":"Feature","id":"K4814","geometry":{"type":"Point","coordinates":[-109.7318, 48.555]},"properties":{"store":"HAVRE MT"}},
{"type":"Feature","id":"K4815","geometry":{"type":"Point","coordinates":[-84.6386, 39.767]},"properties":{"store":"EATON OH"}},
{"type":"Feature","id":"K4817","geometry":{"type":"Point","coordinates":[-86.8239, 33.4656]},"properties":{"store":"HOMEWOOD AL"}},
{"type":"Feature","id":"K4819","geometry":{"type":"Point","coordinates":[-122.9183, 39.027]},"properties":{"store":"LAKEPORT CA"}},
{"type":"Feature","id":"K4825","geometry":{"type":"Point","coordinates":[-77.4777, 41.1181]},"properties":{"store":"MILL HALL PA"}},
{"type":"Feature","id":"K4826","geometry":{"type":"Point","coordinates":[-78.9644, 35.065]},"properties":{"store":"FAYETTEVILLE NC"}},
{"type":"Feature","id":"K4827","geometry":{"type":"Point","coordinates":[-82.8144, 37.8187]},"properties":{"store":"PAINTSVILLE KY"}},
{"type":"Feature","id":"K4835","geometry":{"type":"Point","coordinates":[-85.7022, 34.1596]},"properties":{"store":"CENTRE AL"}},
{"type":"Feature","id":"K4837","geometry":{"type":"Point","coordinates":[-108.3829, 43.0433]},"properties":{"store":"RIVERTON WY"}},
{"type":"Feature","id":"K4840","geometry":{"type":"Point","coordinates":[-75.9242, 40.3805]},"properties":{"store":"READING PA"}},
{"type":"Feature","id":"K4844","geometry":{"type":"Point","coordinates":[-66.0694, 18.3412]},"properties":{"store":"RIO PIEDRAS PR"}},
{"type":"Feature","id":"K4845","geometry":{"type":"Point","coordinates":[-86.3135, 44.2255]},"properties":{"store":"MANISTEE MI"}},
{"type":"Feature","id":"K4847","geometry":{"type":"Point","coordinates":[-84.542, 38.2131]},"properties":{"store":"GEORGETOWN KY"}},
{"type":"Feature","id":"K4848","geometry":{"type":"Point","coordinates":[-81.7734, 30.2947]},"properties":{"store":"JACKSONVILLE FL"}},
{"type":"Feature","id":"K4850","geometry":{"type":"Point","coordinates":[-80.42, 37.1608]},"properties":{"store":"CHRISTIANSBURG VA"}},
{"type":"Feature","id":"K4851","geometry":{"type":"Point","coordinates":[-85.681, 42.8441]},"properties":{"store":"BYRON CENTER MI"}},
{"type":"Feature","id":"K4852","geometry":{"type":"Point","coordinates":[-84.3492, 39.076]},"properties":{"store":"CINCINNATI OH"}},
{"type":"Feature","id":"K4857","geometry":{"type":"Point","coordinates":[-116.5034, 33.9461]},"properties":{"store":"DESERT HOT SPRINGS CA"}},
{"type":"Feature","id":"K4858","geometry":{"type":"Point","coordinates":[-66.0415, 18.2359]},"properties":{"store":"CAGUAS PR"}},
{"type":"Feature","id":"K4860","geometry":{"type":"Point","coordinates":[-77.2372, 39.1266]},"properties":{"store":"GAITHERSBURG MD"}},
{"type":"Feature","id":"K4862","geometry":{"type":"Point","coordinates":[-121.2196, 37.8205]},"properties":{"store":"MANTECA CA"}},
{"type":"Feature","id":"K4863","geometry":{"type":"Point","coordinates":[-105.4978, 44.2746]},"properties":{"store":"GILLETTE WY"}},
{"type":"Feature","id":"K4865","geometry":{"type":"Point","coordinates":[-81.9622, 33.4978]},"properties":{"store":"NORTH AUGUSTA SC"}},
{"type":"Feature","id":"K4866","geometry":{"type":"Point","coordinates":[-81.1176, 35.2595]},"properties":{"store":"GASTONIA NC"}},
{"type":"Feature","id":"K4867","geometry":{"type":"Point","coordinates":[-73.2111, 41.4799]},"properties":{"store":"SOUTHBURY CT"}},
{"type":"Feature","id":"K4868","geometry":{"type":"Point","coordinates":[-72.6613, 40.9327]},"properties":{"store":"RIVERHEAD NY"}},
{"type":"Feature","id":"K4870","geometry":{"type":"Point","coordinates":[-81.7386, 28.5496]},"properties":{"store":"CLERMONT FL"}},
{"type":"Feature","id":"K4871","geometry":{"type":"Point","coordinates":[-73.0237, 40.8274]},"properties":{"store":"FARMINGVILLE NY"}},
{"type":"Feature","id":"K4872","geometry":{"type":"Point","coordinates":[-82.7254, 35.2403]},"properties":{"store":"BREVARD NC"}},
{"type":"Feature","id":"K4873","geometry":{"type":"Point","coordinates":[-80.6462, 34.2479]},"properties":{"store":"CAMDEN SC"}},
{"type":"Feature","id":"K4874","geometry":{"type":"Point","coordinates":[-79.8104, 41.4045]},"properties":{"store":"FRANKLIN PA"}},
{"type":"Feature","id":"K4875","geometry":{"type":"Point","coordinates":[-81.9137, 40.8273]},"properties":{"store":"WOOSTER OH"}},
{"type":"Feature","id":"K4880","geometry":{"type":"Point","coordinates":[-112.333, 34.5877]},"properties":{"store":"PRESCOTT VALLEY AZ"}},
{"type":"Feature","id":"K4882","geometry":{"type":"Point","coordinates":[-94.2149, 45.5486]},"properties":{"store":"WAITE PARK MN"}},
{"type":"Feature","id":"K4883","geometry":{"type":"Point","coordinates":[-88.5257, 34.928]},"properties":{"store":"CORINTH MS"}},
{"type":"Feature","id":"K4886","geometry":{"type":"Point","coordinates":[-82.1347, 27.0091]},"properties":{"store":"PORT CHARLOTTE FL"}},
{"type":"Feature","id":"K4893","geometry":{"type":"Point","coordinates":[-82.5021, 27.5338]},"properties":{"store":"ELLENTON FL"}},
{"type":"Feature","id":"K4895","geometry":{"type":"Point","coordinates":[-85.0747, 42.9455]},"properties":{"store":"IONIA MI"}},
{"type":"Feature","id":"K4897","geometry":{"type":"Point","coordinates":[-77.9799, 39.4393]},"properties":{"store":"MARTINSBURG WV"}},
{"type":"Feature","id":"K4898","geometry":{"type":"Point","coordinates":[-84.4738, 35.5883]},"properties":{"store":"SWEETWATER TN"}},
{"type":"Feature","id":"K4910","geometry":{"type":"Point","coordinates":[-81.3094, 41.6748]},"properties":{"store":"MENTOR OH"}},
{"type":"Feature","id":"K4913","geometry":{"type":"Point","coordinates":[-87.4148, 39.4094]},"properties":{"store":"TERRE HAUTE IN"}},
{"type":"Feature","id":"K4917","geometry":{"type":"Point","coordinates":[-104.9689, 39.8823]},"properties":{"store":"THORNTON CO"}},
{"type":"Feature","id":"K4928","geometry":{"type":"Point","coordinates":[-73.6151, 43.3147]},"properties":{"store":"QUEENSBURY NY"}},
{"type":"Feature","id":"K4936","geometry":{"type":"Point","coordinates":[-79.7526, 39.9063]},"properties":{"store":"UNIONTOWN PA"}},
{"type":"Feature","id":"K4937","geometry":{"type":"Point","coordinates":[-82.9793, 39.3657]},"properties":{"store":"CHILLICOTHE OH"}},
{"type":"Feature","id":"K4939","geometry":{"type":"Point","coordinates":[-80.7448, 41.2145]},"properties":{"store":"WARREN OH"}},
{"type":"Feature","id":"K4953","geometry":{"type":"Point","coordinates":[-80.0461, 32.9641]},"properties":{"store":"NORTH CHARLESTON SC"}},
{"type":"Feature","id":"K4956","geometry":{"type":"Point","coordinates":[-79.9044, 36.0531]},"properties":{"store":"GREENSBORO NC"}},
{"type":"Feature","id":"K4961","geometry":{"type":"Point","coordinates":[-79.4936, 36.075]},"properties":{"store":"BURLINGTON NC"}},
{"type":"Feature","id":"K4964","geometry":{"type":"Point","coordinates":[-83.6117, 39.2196]},"properties":{"store":"HILLSBORO OH"}},
{"type":"Feature","id":"K4966","geometry":{"type":"Point","coordinates":[-81.7409, 41.4203]},"properties":{"store":"CLEVELAND OH"}},
{"type":"Feature","id":"K4970","geometry":{"type":"Point","coordinates":[-89.9203, 35.2133]},"properties":{"store":"MEMPHIS TN"}},
{"type":"Feature","id":"K4972","geometry":{"type":"Point","coordinates":[-101.8682, 33.5365]},"properties":{"store":"LUBBOCK TX"}},
{"type":"Feature","id":"K4984","geometry":{"type":"Point","coordinates":[-87.7959, 41.5946]},"properties":{"store":"TINLEY PARK IL"}},
{"type":"Feature","id":"K4987","geometry":{"type":"Point","coordinates":[-118.2833, 33.8405]},"properties":{"store":"CARSON CA"}},
{"type":"Feature","id":"K4988","geometry":{"type":"Point","coordinates":[-76.2268, 36.8945]},"properties":{"store":"NORFOLK VA"}},
{"type":"Feature","id":"K4995","geometry":{"type":"Point","coordinates":[-83.1855, 42.1859]},"properties":{"store":"SOUTHGATE MI"}},
{"type":"Feature","id":"K4996","geometry":{"type":"Point","coordinates":[-110.8424, 32.2227]},"properties":{"store":"TUCSON AZ"}},
{"type":"Feature","id":"K4997","geometry":{"type":"Point","coordinates":[-76.0189, 36.8471]},"properties":{"store":"VIRGINIA BEACH VA"}},
{"type":"Feature","id":"K4998","geometry":{"type":"Point","coordinates":[-82.9414, 42.4853]},"properties":{"store":"ROSEVILLE MI"}},
{"type":"Feature","id":"K7000","geometry":{"type":"Point","coordinates":[-108.5319, 39.0762]},"properties":{"store":"GRAND JUNCTION CO"}},
{"type":"Feature","id":"K7003","geometry":{"type":"Point","coordinates":[-95.3567, 35.7719]},"properties":{"store":"MUSKOGEE OK"}},
{"type":"Feature","id":"K7006","geometry":{"type":"Point","coordinates":[-114.4393, 42.5619]},"properties":{"store":"TWIN FALLS ID"}},
{"type":"Feature","id":"K7010","geometry":{"type":"Point","coordinates":[-89.5731, 44.535]},"properties":{"store":"STEVENS POINT WI"}},
{"type":"Feature","id":"K7014","geometry":{"type":"Point","coordinates":[-84.7644, 43.5806]},"properties":{"store":"MT PLEASANT MI"}},
{"type":"Feature","id":"K7016","geometry":{"type":"Point","coordinates":[-103.143, 32.7247]},"properties":{"store":"HOBBS NM"}},
{"type":"Feature","id":"K7017","geometry":{"type":"Point","coordinates":[-104.5215, 33.3717]},"properties":{"store":"ROSWELL NM"}},
{"type":"Feature","id":"K7018","geometry":{"type":"Point","coordinates":[-92.2111, 38.583]},"properties":{"store":"JEFFERSON CITY MO"}},
{"type":"Feature","id":"K7021","geometry":{"type":"Point","coordinates":[-89.554, 37.3064]},"properties":{"store":"CAPE GIRARDEAU MO"}},
{"type":"Feature","id":"K7023","geometry":{"type":"Point","coordinates":[-98.4601, 45.4613]},"properties":{"store":"ABERDEEN SD"}},
{"type":"Feature","id":"K7024","geometry":{"type":"Point","coordinates":[-103.6515, 41.873]},"properties":{"store":"SCOTTSBLUFF NE"}},
{"type":"Feature","id":"K7027","geometry":{"type":"Point","coordinates":[-111.0439, 45.6915]},"properties":{"store":"BOZEMAN MT"}},
{"type":"Feature","id":"K7028","geometry":{"type":"Point","coordinates":[-83.5287, 31.4552]},"properties":{"store":"TIFTON GA"}},
{"type":"Feature","id":"K7029","geometry":{"type":"Point","coordinates":[-112.0116, 46.6085]},"properties":{"store":"HELENA MT"}},
{"type":"Feature","id":"K7030","geometry":{"type":"Point","coordinates":[-114.2785, 48.2154]},"properties":{"store":"KALISPELL MT"}},
{"type":"Feature","id":"K7031","geometry":{"type":"Point","coordinates":[-87.6174, 45.1051]},"properties":{"store":"MENOMINEE MI"}},
{"type":"Feature","id":"K7033","geometry":{"type":"Point","coordinates":[-116.9992, 46.4017]},"properties":{"store":"LEWISTON ID"}},
{"type":"Feature","id":"K7034","geometry":{"type":"Point","coordinates":[-118.3006, 46.0754]},"properties":{"store":"WALLA WALLA WA"}},
{"type":"Feature","id":"K7035","geometry":{"type":"Point","coordinates":[-108.1672, 36.7457]},"properties":{"store":"FARMINGTON NM"}},
{"type":"Feature","id":"K7039","geometry":{"type":"Point","coordinates":[-73.2127, 44.4432]},"properties":{"store":"SOUTH BURLINGTON VT"}},
{"type":"Feature","id":"K7041","geometry":{"type":"Point","coordinates":[-95.9377, 36.7493]},"properties":{"store":"BARTLESVILLE OK"}},
{"type":"Feature","id":"K7042","geometry":{"type":"Point","coordinates":[-87.0482, 41.4938]},"properties":{"store":"VALPARAISO IN"}},
{"type":"Feature","id":"K7043","geometry":{"type":"Point","coordinates":[-80.9946, 34.9659]},"properties":{"store":"ROCK HILL SC"}},
{"type":"Feature","id":"K7044","geometry":{"type":"Point","coordinates":[-73.4954, 44.6942]},"properties":{"store":"PLATTSBURGH NY"}},
{"type":"Feature","id":"K7045","geometry":{"type":"Point","coordinates":[-87.6656, 34.7292]},"properties":{"store":"MUSCLE SHOALS AL"}},
{"type":"Feature","id":"K7046","geometry":{"type":"Point","coordinates":[-77.9523, 35.3729]},"properties":{"store":"GOLDSBORO NC"}},
{"type":"Feature","id":"K7047","geometry":{"type":"Point","coordinates":[-116.9731, 33.7308]},"properties":{"store":"HEMET CA"}},
{"type":"Feature","id":"K7048","geometry":{"type":"Point","coordinates":[-72.3219, 43.6336]},"properties":{"store":"WEST LEBANON NH"}},
{"type":"Feature","id":"K7056","geometry":{"type":"Point","coordinates":[-94.7477, 32.5094]},"properties":{"store":"LONGVIEW TX"}},
{"type":"Feature","id":"K7057","geometry":{"type":"Point","coordinates":[-112.4678, 42.9047]},"properties":{"store":"POCATELLO ID"}},
{"type":"Feature","id":"K7058","geometry":{"type":"Point","coordinates":[-82.178, 34.2131]},"properties":{"store":"GREENWOOD SC"}},
{"type":"Feature","id":"K7060","geometry":{"type":"Point","coordinates":[-81.5288, 35.2734]},"properties":{"store":"SHELBY NC"}},
{"type":"Feature","id":"K7061","geometry":{"type":"Point","coordinates":[-91.8235, 29.985]},"properties":{"store":"NEW IBERIA LA"}},
{"type":"Feature","id":"K7062","geometry":{"type":"Point","coordinates":[-80.3778, 33.9557]},"properties":{"store":"SUMTER SC"}},
{"type":"Feature","id":"K7063","geometry":{"type":"Point","coordinates":[-83.336, 36.2029]},"properties":{"store":"MORRISTOWN TN"}},
{"type":"Feature","id":"K7064","geometry":{"type":"Point","coordinates":[-84.9925, 34.761]},"properties":{"store":"DALTON GA"}},
{"type":"Feature","id":"K7065","geometry":{"type":"Point","coordinates":[-76.8243, 42.157]},"properties":{"store":"HORSEHEADS NY"}},
{"type":"Feature","id":"K7066","geometry":{"type":"Point","coordinates":[-86.9755, 34.56]},"properties":{"store":"DECATUR AL"}},
{"type":"Feature","id":"K7067","geometry":{"type":"Point","coordinates":[-81.8703, 26.605]},"properties":{"store":"FT MYERS FL"}},
{"type":"Feature","id":"K7068","geometry":{"type":"Point","coordinates":[-84.2159, 43.6141]},"properties":{"store":"MIDLAND MI"}},
{"type":"Feature","id":"K7069","geometry":{"type":"Point","coordinates":[-83.9835, 35.765]},"properties":{"store":"MARYVILLE TN"}},
{"type":"Feature","id":"K7071","geometry":{"type":"Point","coordinates":[-81.4008, 30.323]},"properties":{"store":"NEPTUNE BEACH FL"}},
{"type":"Feature","id":"K7075","geometry":{"type":"Point","coordinates":[-76.8137, 40.8568]},"properties":{"store":"SHAMOKIN DAM PA"}},
{"type":"Feature","id":"K7076","geometry":{"type":"Point","coordinates":[-86.4061, 35.8635]},"properties":{"store":"MURFREESBORO TN"}},
{"type":"Feature","id":"K7077","geometry":{"type":"Point","coordinates":[-97.6776, 26.2045]},"properties":{"store":"HARLINGEN TX"}},
{"type":"Feature","id":"K7080","geometry":{"type":"Point","coordinates":[-77.3699, 35.5883]},"properties":{"store":"GREENVILLE NC"}},
{"type":"Feature","id":"K7083","geometry":{"type":"Point","coordinates":[-80.3086, 40.965]},"properties":{"store":"NEW CASTLE PA"}},
{"type":"Feature","id":"K7090","geometry":{"type":"Point","coordinates":[-77.4228, 34.7829]},"properties":{"store":"JACKSONVILLE NC"}},
{"type":"Feature","id":"K7098","geometry":{"type":"Point","coordinates":[-121.9685, 37.9547]},"properties":{"store":"CONCORD CA"}},
{"type":"Feature","id":"K7104","geometry":{"type":"Point","coordinates":[-71.4562, 42.474]},"properties":{"store":"ACTON MA"}},
{"type":"Feature","id":"K7106","geometry":{"type":"Point","coordinates":[-92.9607, 44.9615]},"properties":{"store":"OAKDALE MN"}},
{"type":"Feature","id":"K7107","geometry":{"type":"Point","coordinates":[-109.2613, 41.5795]},"properties":{"store":"ROCK SPRINGS WY"}},
{"type":"Feature","id":"K7109","geometry":{"type":"Point","coordinates":[-73.0991, 41.5759]},"properties":{"store":"WATERTOWN CT"}},
{"type":"Feature","id":"K7110","geometry":{"type":"Point","coordinates":[-75.4498, 39.8171]},"properties":{"store":"CLAYMONT DE"}},
{"type":"Feature","id":"K7120","geometry":{"type":"Point","coordinates":[-79.8387, 40.1385]},"properties":{"store":"BELLE VERNON PA"}},
{"type":"Feature","id":"K7127","geometry":{"type":"Point","coordinates":[-86.7375, 41.5988]},"properties":{"store":"LA PORTE IN"}},
{"type":"Feature","id":"K7129","geometry":{"type":"Point","coordinates":[-80.1985, 41.6227]},"properties":{"store":"MEADVILLE PA"}},
{"type":"Feature","id":"K7131","geometry":{"type":"Point","coordinates":[-82.6147, 39.7296]},"properties":{"store":"LANCASTER OH"}},
{"type":"Feature","id":"K7133","geometry":{"type":"Point","coordinates":[-69.7872, 44.3104]},"properties":{"store":"AUGUSTA ME"}},
{"type":"Feature","id":"K7134","geometry":{"type":"Point","coordinates":[-76.2161, 42.5706]},"properties":{"store":"CORTLAND NY"}},
{"type":"Feature","id":"K7139","geometry":{"type":"Point","coordinates":[-110.7894, 43.4699]},"properties":{"store":"JACKSON WY"}},
{"type":"Feature","id":"K7140","geometry":{"type":"Point","coordinates":[-85.3698, 40.2181]},"properties":{"store":"MUNCIE IN"}},
{"type":"Feature","id":"K7142","geometry":{"type":"Point","coordinates":[-75.7694, 41.3189]},"properties":{"store":"PITTSTON PA"}},
{"type":"Feature","id":"K7147","geometry":{"type":"Point","coordinates":[-82.3959, 28.034]},"properties":{"store":"TAMPA FL"}},
{"type":"Feature","id":"K7154","geometry":{"type":"Point","coordinates":[-85.0557, 33.5893]},"properties":{"store":"CARROLLTON GA"}},
{"type":"Feature","id":"K7155","geometry":{"type":"Point","coordinates":[-70.8874, 41.6397]},"properties":{"store":"FAIRHAVEN MA"}},
{"type":"Feature","id":"K7160","geometry":{"type":"Point","coordinates":[-80.6929, 32.4425]},"properties":{"store":"BEAUFORT SC"}},
{"type":"Feature","id":"K7161","geometry":{"type":"Point","coordinates":[-92.442, 41.0172]},"properties":{"store":"OTTUMWA IA"}},
{"type":"Feature","id":"K7165","geometry":{"type":"Point","coordinates":[-119.0377, 34.2264]},"properties":{"store":"CAMARILLO CA"}},
{"type":"Feature","id":"K7169","geometry":{"type":"Point","coordinates":[-97.6229, 38.8352]},"properties":{"store":"SALINA KS"}},
{"type":"Feature","id":"K7174","geometry":{"type":"Point","coordinates":[-82.5692, 37.5194]},"properties":{"store":"PIKEVILLE KY"}},
{"type":"Feature","id":"K7175","geometry":{"type":"Point","coordinates":[-117.4553, 33.9773]},"properties":{"store":"RIVERSIDE CA"}},
{"type":"Feature","id":"K7177","geometry":{"type":"Point","coordinates":[-74.1455, 40.7941]},"properties":{"store":"BELLEVILLE NJ"}},
{"type":"Feature","id":"K7185","geometry":{"type":"Point","coordinates":[-89.4708, 40.6211]},"properties":{"store":"MORTON IL"}},
{"type":"Feature","id":"K7187","geometry":{"type":"Point","coordinates":[-80.0333, 42.108]},"properties":{"store":"ERIE PA"}},
{"type":"Feature","id":"K7192","geometry":{"type":"Point","coordinates":[-75.2492, 40.6856]},"properties":{"store":"EASTON PA"}},
{"type":"Feature","id":"K7193","geometry":{"type":"Point","coordinates":[-93.258, 37.2392]},"properties":{"store":"SPRINGFIELD MO"}},
{"type":"Feature","id":"K7195","geometry":{"type":"Point","coordinates":[-119.8676, 34.4285]},"properties":{"store":"GOLETA CA"}},
{"type":"Feature","id":"K7198","geometry":{"type":"Point","coordinates":[-75.1022, 39.9891]},"properties":{"store":"PHILADELPHIA PA"}},